stop_id,stop_code,stop_name,stop_desc,stop_lat,stop_lon,zone_id,stop_url,location_type,parent_station,stop_timezone,wheelchair_boarding
628105824,,"AVENIDA LACAZE 6565-6599",,-34.79149,-58.311551,,,,,America/Argentina/Buenos_Aires,
202913,,"4215 LAS HERAS GENERAL AV.",,-34.58143,-58.418754,,,,,America/Argentina/Buenos_Aires,
6408107355,,"JOSÉ DE MALARREDO 345",,-34.619541,-58.643382,,,,,America/Argentina/Buenos_Aires,
6427132103,,"BERMÚDEZ 5399",,-34.683692,-58.605642,,,,,America/Argentina/Buenos_Aires,
202358,,"3952 TRIUNVIRATO AV.",,-34.579731,-58.476373,,,,,America/Argentina/Buenos_Aires,
6371119221,,"CARLOS GARDEL 2101-2199",,-34.588646,-58.554201,,,,,America/Argentina/Buenos_Aires,
628118722,,"JUSTO GERMAN BERMÚDEZ 1105",,-34.822741,-58.383934,,,,,America/Argentina/Buenos_Aires,
6756132881,,"PARANÁ 2493",,-34.502437,-58.507917,,,,,America/Argentina/Buenos_Aires,
6756104035,,"GENERAL LAMADRID 897",,-34.506192,-58.548338,,,,,America/Argentina/Buenos_Aires,
635107587,,"AVENIDA MANUEL BELGRANO 4583",,-34.693803,-58.335369,,,,,America/Argentina/Buenos_Aires,
6539118709,,"OTERO 3192",,-34.737839,-58.699274,,,,,America/Argentina/Buenos_Aires,
6539120371,,"JOSÉ BARABINO 2200-2298",,-34.6774,-58.679749,,,,,America/Argentina/Buenos_Aires,
628118796,,"AV. REPUBLIC ARGENTINA 2200-2298",,-34.805436,-58.365146,,,,,America/Argentina/Buenos_Aires,
6568117105,,"PRESIDENTE HIPÓLITO YRIGOYEN 1678",,-34.660192,-58.630355,,,,,America/Argentina/Buenos_Aires,
6329106841,,"RUTA PROVINCIAL 40 Y BUZZI",,-34.918651,-58.953895,,,,,America/Argentina/Buenos_Aires,
6427134523,,"LEÓNARDO DA VINCI 4150-4198",,-34.74458,-58.617357,,,,,America/Argentina/Buenos_Aires,
6427109279,,"OLAVARRÍA 2374",,-34.696116,-58.49016,,,,,America/Argentina/Buenos_Aires,
6658121300,,"AVENIDA GUILLERMO ENRIQUE HUDSON 5371",,-34.783058,-58.303514,,,,,America/Argentina/Buenos_Aires,
6427107177,,"AVENIDA INTENDENTE ESTEBAN CROVARA 77",,-34.674904,-58.503229,,,,,America/Argentina/Buenos_Aires,
6441131470,,"CALLE 137_CALLE 80",,-34.965594,-57.951074,,,,,America/Argentina/Buenos_Aires,
6539132257,,"ZARATE 1-99",,-34.66165,-58.698022,,,,,America/Argentina/Buenos_Aires,
203610,,"2710 LAS HERAS GENERAL AV.",,-34.584348,-58.400665,,,,,America/Argentina/Buenos_Aires,
201730,,"508 DIRECTORIO AV.",,-34.628038,-58.434026,,,,,America/Argentina/Buenos_Aires,
6805117213,,"ALMTE BROWN 2000-2098",,-34.45026,-58.598569,,,,,America/Argentina/Buenos_Aires,
6840122377,,"ALFREDO PALACIOS 378-400",,-34.635627,-58.536891,,,,,America/Argentina/Buenos_Aires,
207740,,"1722 SALTA",,-34.628166,-58.3828,,,,,America/Argentina/Buenos_Aires,
6490132248,,"PRESBITERO JOSÉ MALABIA 901-999",,-34.73821,-58.382329,,,,,America/Argentina/Buenos_Aires,
628130076,,"ASAMBLEA 1500-1548",,-34.827561,-58.403172,,,,,America/Argentina/Buenos_Aires,
6539129775,,"RUTA PROVINCIAL 7 Y SALTA",,-34.664627,-58.732115,,,,,America/Argentina/Buenos_Aires,
6260103948,,"RAMÓN SANTAMARINA 249-299",,-34.8244,-58.481661,,,,,America/Argentina/Buenos_Aires,
6749108395,,"GENERAL LAVALLE 1100-1156",,-34.442661,-58.557779,,,,,America/Argentina/Buenos_Aires,
203754,,"3685 PERON EVA AV.",,-34.645835,-58.466965,,,,,America/Argentina/Buenos_Aires,
6412114489,,"AVENIDA PRESIDENTE HIPÓLITO YRIGOYEN Y F. IGLESIAS",,-34.517494,-58.748467,,,,,America/Argentina/Buenos_Aires,
206984,,"2924 DIRECTORIO AV.",,-34.635643,-58.467862,,,,,America/Argentina/Buenos_Aires,
6490113825,,"RECONDO 2301-2399",,-34.719715,-58.46014,,,,,America/Argentina/Buenos_Aires,
6329111929,,"AVENIDA VILLAMAYOR Y MARCONI",,-34.924219,-58.952014,,,,,America/Argentina/Buenos_Aires,
6658125543,,"AVENIDA OSCAR SMITH 2252",,-34.757014,-58.267914,,,,,America/Argentina/Buenos_Aires,
206022,,"4699 ALVAREZ JONTE AV.",,-34.619188,-58.504712,,,,,America/Argentina/Buenos_Aires,
691124639,,"CALLE 21 1848-1898",,-34.783884,-58.233426,,,,,America/Argentina/Buenos_Aires,
6371101386,,"DOCTOR RAMÓN CARRILLO 2877",,-34.570019,-58.546388,,,,,America/Argentina/Buenos_Aires,
6515124086,,"EL CALLAO 2301-2365",,-34.479528,-58.731793,,,,,America/Argentina/Buenos_Aires,
6434133814,,"AV. 9 DE JULIO 3402-3500",,-34.725404,-58.365845,,,,,America/Argentina/Buenos_Aires,
6539114479,,"SAN LORENZO 1612",,-34.684724,-58.706881,,,,,America/Argentina/Buenos_Aires,
204805,,"1327 AREVALO",,-34.584356,-58.4443,,,,,America/Argentina/Buenos_Aires,
6371122771,,"AVENIDA 101 DOCTOR RICARDO BALBÍN 2620",,-34.575798,-58.548124,,,,,America/Argentina/Buenos_Aires,
6756125769,,"NUESTRAS MALVINAS 1202",,-34.495814,-58.573454,,,,,America/Argentina/Buenos_Aires,
6490122840,,"EL ZORZAL 3302-3400",,-34.763187,-58.357186,,,,,America/Argentina/Buenos_Aires,
6427134236,,"MIGUEL CANE 4899-4999",,-34.681225,-58.602357,,,,,America/Argentina/Buenos_Aires,
6515127744,,"AV. DEL LIBERTADOR GRAL. SAN MARTÍN 2425",,-34.48651,-58.664087,,,,,America/Argentina/Buenos_Aires,
203843,,"483 BOEDO AV.",,-34.618284,-58.416758,,,,,America/Argentina/Buenos_Aires,
6658118816,,"AGENTE JOSÉ H. LORA 1050-1074",,-34.720792,-58.236973,,,,,America/Argentina/Buenos_Aires,
6861118920,,"AVENIDA DEL LIBERTADOR GENERAL SAN MARTÍN 1801-1857",,-34.515899,-58.476189,,,,,America/Argentina/Buenos_Aires,
206192,,"2875 WASHINGTON",,-34.562544,-58.475485,,,,,America/Argentina/Buenos_Aires,
6861127136,,"EDUARDO SIVORI 4602-4694",,-34.524438,-58.527614,,,,,America/Argentina/Buenos_Aires,
6760113585,,"AVENIDA GENERAL JUAN GREGORIO LEMOS 3499-3599",,-34.518166,-58.671194,,,,,America/Argentina/Buenos_Aires,
6427103401,,"ZAPIOLA 3622-3648",,-34.679107,-58.549724,,,,,America/Argentina/Buenos_Aires,
6749108225,,"URUGUAY 5099-5183",,-34.4753,-58.574755,,,,,America/Argentina/Buenos_Aires,
6861132958,,"JUAN ZUFRIATEGUI 3902-4000",,-34.551153,-58.504088,,,,,America/Argentina/Buenos_Aires,
6434127430,,"GENERAL MADARIAGA 452-500",,-34.703482,-58.366976,,,,,America/Argentina/Buenos_Aires,
6490112814,,"AVENIDA HIPÓLITO YRIGOYEN 9600-9698",,-34.767721,-58.404157,,,,,America/Argentina/Buenos_Aires,
6490105672,,"CALLE MOLINA ARROTEA 401-421",,-34.768711,-58.404267,,,,,America/Argentina/Buenos_Aires,
6568113934,,"DOCTOR RODOLFO MONTE 914",,-34.659251,-58.611087,,,,,America/Argentina/Buenos_Aires,
2032613,,"112 CRAMER",,-34.577629,-58.441031,,,,,America/Argentina/Buenos_Aires,
6658110943,,"CAMINO GENERAL BELGRANO 600-648",,-34.734037,-58.325363,,,,,America/Argentina/Buenos_Aires,
202697,,"64 FRAY CAYETANO RODRIGUEZ",,-34.628101,-58.463001,,,,,America/Argentina/Buenos_Aires,
6756116600,,"AVENIDA ANDRÉS ROLON 1201-1299",,-34.472575,-58.537024,,,,,America/Argentina/Buenos_Aires,
6658105000,,"AVENIDA CENTENARIO 3199-3399",,-34.740119,-58.246996,,,,,America/Argentina/Buenos_Aires,
6274128746,,"JOSÉ ENRIQUE RODÓ 2802-2900",,-34.804398,-58.268683,,,,,America/Argentina/Buenos_Aires,
206229,,"377 PERGAMINO",,-34.636721,-58.472542,,,,,America/Argentina/Buenos_Aires,
6658123033,,"AVENIDA LAMADRID 2499-2599",,-34.726036,-58.293841,,,,,America/Argentina/Buenos_Aires,
6434133402,,"TENIENTE CORONEL J. OBON 2394",,-34.67507,-58.429922,,,,,America/Argentina/Buenos_Aires,
6410133929,,"CORONEL JOSÉ MARÍA VILELA 769",,-34.656888,-58.679428,,,,,America/Argentina/Buenos_Aires,
204191,,"1399 RAMOS MEJIA JOSE MARIA DR. AV.",,-34.591252,-58.374047,,,,,America/Argentina/Buenos_Aires,
6805106573,,"AVENIDA JUAN DOMINGO PERÓN 5701-5729",,-34.423473,-58.693969,,,,,America/Argentina/Buenos_Aires,
628132752,,"HIPÓLITO BOUCHARD 2798",,-34.79176,-58.368436,,,,,America/Argentina/Buenos_Aires,
6756118730,,"COLECTORA OESTE ACCESO NORTE",,-34.492811,-58.562794,,,,,America/Argentina/Buenos_Aires,
691109710,,"AVENIDA RIGOLLEAU 1814",,-34.777732,-58.23941,,,,,America/Argentina/Buenos_Aires,
6490133479,,"MANUELA PEDRAZA 3400-3498",,-34.739332,-58.473928,,,,,America/Argentina/Buenos_Aires,
6441124198,,"CAMINO PARQUE CENTENARIO_CALLE 54",,-34.850467,-58.091388,,,,,America/Argentina/Buenos_Aires,
6410127551,,"POSTA DE PARDO 2600-2698",,-34.655142,-58.691882,,,,,America/Argentina/Buenos_Aires,
6638109231,,"ESTANISLAO LOPEZ Y ESTANISLAO ZEBALLOS - BOMBEROS",,-34.457275,-58.92375,,,,,America/Argentina/Buenos_Aires,
206802,,"3383 BUCARELLI",,-34.567101,-58.49566,,,,,America/Argentina/Buenos_Aires,
6568126281,,"DOCTOR RICARDO BALBÍN 200-298",,-34.63582,-58.614773,,,,,America/Argentina/Buenos_Aires,
6861116940,,"ESPAÑA 3720",,-34.507743,-58.50719,,,,,America/Argentina/Buenos_Aires,
6371127491,,"LACROZE 6191",,-34.584494,-58.570718,,,,,America/Argentina/Buenos_Aires,
6410127961,,"INTENDENTE CARLOS RATTI 3845",,-34.633525,-58.705925,,,,,America/Argentina/Buenos_Aires,
6539100808,,"AVENIDA PATRICIOS 4099-4199",,-34.689892,-58.68883,,,,,America/Argentina/Buenos_Aires,
202714,,"2004 YRIGOYEN HIPOLITO",,-34.610539,-58.394956,,,,,America/Argentina/Buenos_Aires,
6515123616,,"LUIS MARÍA DRAGO Y TIERRA DEL FUEGO",,-34.468344,-58.754587,,,,,America/Argentina/Buenos_Aires,
6658108498,,"MAIPÚ 1150-1184",,-34.704802,-58.299372,,,,,America/Argentina/Buenos_Aires,
6441110861,,"AVENIDA 13_CALLE 57",,-34.924078,-57.951091,,,,,America/Argentina/Buenos_Aires,
6427108679,,"CORONEL TERRADA 4000-4048",,-34.696435,-58.561092,,,,,America/Argentina/Buenos_Aires,
6434101198,,"REMEDIOS DE ESCALADA DE SAN MARTÍN 501-599",,-34.663468,-58.417387,,,,,America/Argentina/Buenos_Aires,
6410117127,,"BACACAY 600-648",,-34.649205,-58.667422,,,,,America/Argentina/Buenos_Aires,
6490116783,,"PRESBITERO JOSÉ MALABIA 501-599",,-34.736835,-58.387785,,,,,America/Argentina/Buenos_Aires,
6434119866,,"ITUZAINGÓ 2001-2099",,-34.713344,-58.380733,,,,,America/Argentina/Buenos_Aires,
6371126247,,"RODRÍGUEZ PEÑA 4516",,-34.591262,-58.532414,,,,,America/Argentina/Buenos_Aires,
203309,,"1061 PUEYRREDON AV.",,-34.597898,-58.403573,,,,,America/Argentina/Buenos_Aires,
6756128416,,"NICOLÁS AVELLANEDA 1314",,-34.475444,-58.535855,,,,,America/Argentina/Buenos_Aires,
6658127572,,"AV. FERROCARRIL PROVINCIAL 4700-4798",,-34.783523,-58.31363,,,,,America/Argentina/Buenos_Aires,
204946,,"3583 CONGRESO AV.",,-34.561655,-58.474589,,,,,America/Argentina/Buenos_Aires,
201587,,"2239 ALVAREZ JONTE",,-34.605649,-58.474585,,,,,America/Argentina/Buenos_Aires,
201075,,"3904 OLLEROS",,-34.584933,-58.452398,,,,,America/Argentina/Buenos_Aires,
202285,,"2914 MOSCONI GENERAL AV.",,-34.586388,-58.502391,,,,,America/Argentina/Buenos_Aires,
691129960,,"CALLE 29 4857",,-34.775407,-58.197336,,,,,America/Argentina/Buenos_Aires,
6408131781,,"GENERAL ALFREDO RODRÍGUEZ 1600-1698",,-34.601271,-58.625729,,,,,America/Argentina/Buenos_Aires,
6427101206,,"MARTÍN UGARTE 749",,-34.700167,-58.490039,,,,,America/Argentina/Buenos_Aires,
6434103368,,"PRES. TTE. GRAL. JUAN DOMINGO PERÓN 3299",,-34.669491,-58.411513,,,,,America/Argentina/Buenos_Aires,
6427108933,,"AVENIDA INTENDENTE ESTEBAN CROVARA 2400-2498",,-34.687502,-58.522065,,,,,America/Argentina/Buenos_Aires,
6805122606,,"GRAL. CONESA 2900-2964",,-34.416509,-58.681623,,,,,America/Argentina/Buenos_Aires,
628109771,,"JUAN CARLOS CASTAGNINO 1202-1300",,-34.823713,-58.403313,,,,,America/Argentina/Buenos_Aires,
6371101397,,"AVENIDA 101 DOCTOR RICARDO BALBÍN 6457-6499",,-34.562595,-58.590728,,,,,America/Argentina/Buenos_Aires,
6658110091,,"AVENIDA 12 DE OCTUBRE 1599-1699",,-34.735393,-58.275393,,,,,America/Argentina/Buenos_Aires,
2033265,,"963 VIEYTES",,-34.643597,-58.379348,,,,,America/Argentina/Buenos_Aires,
6658117202,,"AVENIDA SAN MARTÍN 800-898",,-34.760858,-58.301387,,,,,America/Argentina/Buenos_Aires,
6441110597,,"AVENIDA 72_CALLE 15",,-34.938698,-57.935444,,,,,America/Argentina/Buenos_Aires,
202254,,"4014 COSTA RICA",,-34.591552,-58.419396,,,,,America/Argentina/Buenos_Aires,
2012,,"669 REGIMIENTO DE PATRICIOS AV.",,-34.636186,-58.369851,,,,,America/Argentina/Buenos_Aires,
207108,,"2291 INDEPENDENCIA AV.",,-34.618507,-58.398768,,,,,America/Argentina/Buenos_Aires,
6539124647,,"HELVECIA 1799-1899",,-34.693641,-58.664741,,,,,America/Argentina/Buenos_Aires,
6539129152,,"ESCOBAR 2099-2199",,-34.702287,-58.683041,,,,,America/Argentina/Buenos_Aires,
6805121232,,"AVENIDA SANTA MARÍA DE LAS CONCHAS 5200-5288",,-34.40427,-58.627365,,,,,America/Argentina/Buenos_Aires,
6371129865,,"INTENDENTE WITCOMB 2600-2698",,-34.55113,-58.550864,,,,,America/Argentina/Buenos_Aires,
2032010,,"36 ROSARIO",,-34.618357,-58.429072,,,,,America/Argentina/Buenos_Aires,
6749102583,,"AVENIDA NICOLÁS AVELLANEDA 2825",,-34.45607,-58.562932,,,,,America/Argentina/Buenos_Aires,
635111670,,"GENERAL ARREDONDO 4086",,-34.695815,-58.345521,,,,,America/Argentina/Buenos_Aires,
6756128585,,"INTENDENTE TOMKINSON 2459-2499",,-34.478021,-58.548687,,,,,America/Argentina/Buenos_Aires,
6427134910,,"RUTA",,-34.809829,-58.636272,,,,,America/Argentina/Buenos_Aires,
6410126034,,"AVENIDA RIVADAVIA 22202-22300",,-34.66195,-58.673051,,,,,America/Argentina/Buenos_Aires,
6371123462,,"AVENIDA PRESIDENTE JUAN DOMINGO PERÓN 5001-5091",,-34.581277,-58.554051,,,,,America/Argentina/Buenos_Aires,
6568133652,,"CORONEL MARTÍN P. DE LACARRA 2102-2200",,-34.668335,-58.660347,,,,,America/Argentina/Buenos_Aires,
6434113836,,"14 DE JULIO 3543-3599",,-34.71333,-58.403997,,,,,America/Argentina/Buenos_Aires,
2031885,,"4892 GORDILLO TIMOTEO",,-34.685382,-58.473201,,,,,America/Argentina/Buenos_Aires,
6408127700,,"DOLORES DE HUICI 2799-2899",,-34.583866,-58.652334,,,,,America/Argentina/Buenos_Aires,
628103228,,"RUTA PROVINCIAL 210 1667-1675",,-34.862685,-58.38879,,,,,America/Argentina/Buenos_Aires,
205961,,"897 CAMARGO",,-34.59733,-58.443581,,,,,America/Argentina/Buenos_Aires,
6441120393,,"CALLE 12_AVENIDA 66",,-34.930635,-57.939811,,,,,America/Argentina/Buenos_Aires,
6427113894,,"BERÓN DE ASTRADA 3799-3899",,-34.675853,-58.544983,,,,,America/Argentina/Buenos_Aires,
6410116318,,"MARTÍN FIERRO 4645",,-34.615409,-58.707876,,,,,America/Argentina/Buenos_Aires,
691105430,,"CAMINO GENERAL BELGRANO 1417-1499",,-34.7859,-58.25317,,,,,America/Argentina/Buenos_Aires,
6760103824,,"AVENIDA RICARDO BALBÍN 2968-3000",,-34.556351,-58.727083,,,,,America/Argentina/Buenos_Aires,
6329113588,,"AVENIDA COLÓN Y MORENO",,-34.931515,-58.952354,,,,,America/Argentina/Buenos_Aires,
204668,,"3077 CRAMER AV.",,-34.556212,-58.468675,,,,,America/Argentina/Buenos_Aires,
6408115840,,"MOISÉS LEBENSOHN 4317-4399",,-34.617778,-58.652331,,,,,America/Argentina/Buenos_Aires,
6274109324,,"AVENIDA GUILLERMO HUDSON 2722",,-34.833038,-58.241149,,,,,America/Argentina/Buenos_Aires,
6658131159,,"AVENIDA GENERAL MOSCONI 31",,-34.731428,-58.303317,,,,,America/Argentina/Buenos_Aires,
6427119469,,"AVENIDA LURO 4664",,-34.737913,-58.600884,,,,,America/Argentina/Buenos_Aires,
6434117816,,"BRASIL 3201",,-34.666456,-58.407257,,,,,America/Argentina/Buenos_Aires,
6749134520,,"AVENIDA DEL LIBERTADOR GENERAL SAN MARTÍN 3599-3699",,-34.45208,-58.528062,,,,,America/Argentina/Buenos_Aires,
6515110274,,"COLECTORA ESTE RAMAL PILAR",,-34.456314,-58.722214,,,,,America/Argentina/Buenos_Aires,
6490105173,,"COLECTORA CAMINO DE CINTURA 30",,-34.790252,-58.450517,,,,,America/Argentina/Buenos_Aires,
20826,,"752 ROCA JULIO A. PRESIDENTE DIAGONAL SUR AV.",,-34.612196,-58.376889,,,,,America/Argentina/Buenos_Aires,
6441124441,,"CALLE 5 BIS_CALLE 516",,-34.885712,-57.985597,,,,,America/Argentina/Buenos_Aires,
6441120550,,"AVENIDA 19_CALLE 64",,-34.935672,-57.949298,,,,,America/Argentina/Buenos_Aires,
6441123289,,"CALLE 419_CALLE 25",,-34.863399,-58.090656,,,,,America/Argentina/Buenos_Aires,
6427110259,,"BRIGADIER GENERAL JUAN MANUEL DE ROSAS Y RUTA NACIONAL 3",,-34.831071,-58.647526,,,,,America/Argentina/Buenos_Aires,
203505,,"5049 DIRECTORIO AV.",,-34.651146,-58.491394,,,,,America/Argentina/Buenos_Aires,
6427112194,,"EL TALA 3801-3899",,-34.717093,-58.488336,,,,,America/Argentina/Buenos_Aires,
6427102661,,"ALMIRANTE COCHRANE 1776",,-34.711485,-58.524346,,,,,America/Argentina/Buenos_Aires,
6412105367,,"AVENIDA PRESIDENTE HIPÓLITO YRIGOYEN 2205",,-34.521241,-58.757308,,,,,America/Argentina/Buenos_Aires,
6410107401,,"MARTÍN FIERRO 3351",,-34.624916,-58.695524,,,,,America/Argentina/Buenos_Aires,
204581,,"1208 DEL LIBERTADOR AV.",,-34.585238,-58.388907,,,,,America/Argentina/Buenos_Aires,
6805123819,,"DEÁN FUNES 600-698",,-34.40805,-58.686167,,,,,America/Argentina/Buenos_Aires,
6427129526,,"HUGO WAST 49-99",,-34.834398,-58.647336,,,,,America/Argentina/Buenos_Aires,
6756109532,,"GENERAL GUIDO 635-693",,-34.461528,-58.537923,,,,,America/Argentina/Buenos_Aires,
6532113001,,"KM 97 - TOYOTA",,-34.665791,-59.404458,,,,,America/Argentina/Buenos_Aires,
2032385,,"5797 DEL LIBERTADOR AV.",,-34.558702,-58.445977,,,,,America/Argentina/Buenos_Aires,
6427100981,,"AVENIDA DE MAYO 948",,-34.649684,-58.563872,,,,,America/Argentina/Buenos_Aires,
201564,,"1812 PAYSANDU",,-34.604207,-58.458726,,,,,America/Argentina/Buenos_Aires,
6260113564,,"R. OLIVER 1099-1199",,-34.778986,-58.476372,,,,,America/Argentina/Buenos_Aires,
6574123799,,"PARROQUIA NUESTRA SEÑORA DEL CARMEN Y CALLE 127",,-35.004846,-59.263485,,,,,America/Argentina/Buenos_Aires,
6441118855,,"AVENIDA 32_CALLE 133",,-34.925155,-57.996065,,,,,America/Argentina/Buenos_Aires,
6434127940,,"JOSÉ MARÍA MORENO 1562",,-34.697962,-58.41461,,,,,America/Argentina/Buenos_Aires,
6252134188,,"GENERAL LAMADRID Y SAN JUAN",,-34.33779,-58.78916,,,,,America/Argentina/Buenos_Aires,
6497130288,,"AVENIDA NUESTRA SEÑORA DE LUJÁN Y UGARTE",,-34.556506,-59.118233,,,,,America/Argentina/Buenos_Aires,
6568107924,,"MONSEÑOR DE ANDREA 731",,-34.637747,-58.593789,,,,,America/Argentina/Buenos_Aires,
20768,,"3575 SANABRIA",,-34.604524,-58.512908,,,,,America/Argentina/Buenos_Aires,
20838,,"1860 DON PEDRO DE MENDOZA AV.",,-34.63916,-58.36107,,,,,America/Argentina/Buenos_Aires,
6408106150,,"EVA PERÓN 2999-3049",,-34.586492,-58.658087,,,,,America/Argentina/Buenos_Aires,
635110845,,"AVENIDA BARTOLOMÉ MITRE 5432",,-34.697382,-58.325672,,,,,America/Argentina/Buenos_Aires,
6408120437,,"FÉLIX FRÍAS 2975",,-34.607066,-58.641303,,,,,America/Argentina/Buenos_Aires,
6427111463,,"VENTURA YANZI 2199-2299",,-34.716472,-58.611533,,,,,America/Argentina/Buenos_Aires,
6490126603,,"DORREGO 724-748",,-34.779519,-58.402341,,,,,America/Argentina/Buenos_Aires,
6539114102,,"AVENIDA DOCTOR RICARDO BALBÍN Y RAUCH",,-34.728788,-58.795988,,,,,America/Argentina/Buenos_Aires,
6260121376,,"AVENIDA E. SANTAMARINA 1006-1048",,-34.826053,-58.478595,,,,,America/Argentina/Buenos_Aires,
6427111766,,"INFANTA ISABEL 5899-5999",,-34.773599,-58.618641,,,,,America/Argentina/Buenos_Aires,
205790,,"10768 RIVADAVIA AV.",,-34.639198,-58.515336,,,,,America/Argentina/Buenos_Aires,
691121177,,"CAMINO GENERAL BELGRANO_CALLE 706",,-34.841636,-58.158168,,,,,America/Argentina/Buenos_Aires,
2032168,,"1987 ALVAREZ THOMAS AV.",,-34.578628,-58.469129,,,,,America/Argentina/Buenos_Aires,
6805121809,,"AVENIDA ALVEAR 2100-2198",,-34.414939,-58.695055,,,,,America/Argentina/Buenos_Aires,
6410131022,,"GENERAL FERNÁNDEZ DE LA CRUZ 162",,-34.634852,-58.66561,,,,,America/Argentina/Buenos_Aires,
202792,,"1420 DONADO",,-34.579094,-58.470869,,,,,America/Argentina/Buenos_Aires,
6260130622,,"SAN MARTÍN 1200-1298",,-34.80386,-58.45657,,,,,America/Argentina/Buenos_Aires,
206612,,"1442 LIMA",,-34.625187,-58.382284,,,,,America/Argentina/Buenos_Aires,
628122853,,"RAWSON 700-748",,-34.792162,-58.324625,,,,,America/Argentina/Buenos_Aires,
635105666,,"GUAMINÍ 5973",,-34.690787,-58.306336,,,,,America/Argentina/Buenos_Aires,
6434123346,,"MIGUEL CANE 293",,-34.711198,-58.395556,,,,,America/Argentina/Buenos_Aires,
6412115290,,"AVENIDA HECTOR ARREGUI 2249-2299",,-34.498892,-58.767147,,,,,America/Argentina/Buenos_Aires,
6490133145,,"DOCTOR JORGE MELBER 2101-2199",,-34.808357,-58.425329,,,,,America/Argentina/Buenos_Aires,
6756121817,,"INDEPENDENCIA 1554",,-34.516277,-58.5495,,,,,America/Argentina/Buenos_Aires,
6658109099,,"BRANDSEN 860-888",,-34.720361,-58.241312,,,,,America/Argentina/Buenos_Aires,
6427107373,,"CALIFORNIA 8300-8398",,-34.827215,-58.636442,,,,,America/Argentina/Buenos_Aires,
6658123851,,"TRIUNVIRATO 2200-2298",,-34.745669,-58.276836,,,,,America/Argentina/Buenos_Aires,
6756133438,,"INDEPENDENCIA 1902",,-34.518851,-58.546227,,,,,America/Argentina/Buenos_Aires,
6861109316,,"PANAMERICANA Y UGARTE",,-34.523354,-58.511425,,,,,America/Argentina/Buenos_Aires,
6490133317,,"MIGUEL CANE 1102-1200",,-34.752407,-58.384432,,,,,America/Argentina/Buenos_Aires,
6568119249,,"EL CEIBO 200-298",,-34.650544,-58.586729,,,,,America/Argentina/Buenos_Aires,
202153,,"2073 ARAOZ",,-34.588569,-58.419666,,,,,America/Argentina/Buenos_Aires,
635118602,,"ENTRE RÍOS 920",,-34.670276,-58.393211,,,,,America/Argentina/Buenos_Aires,
6539134563,,"MANUEL GÓMEZ FRETES 3500-3598",,-34.689302,-58.736855,,,,,America/Argentina/Buenos_Aires,
6568125041,,"CAPITÁN CLAUDIO ROSALES 1891",,-34.630123,-58.590234,,,,,America/Argentina/Buenos_Aires,
2032689,,"5895 CASTRO EMILIO AV.",,-34.647213,-58.505267,,,,,America/Argentina/Buenos_Aires,
2032734,,"3638 CASEROS AV.",,-34.638972,-58.416391,,,,,America/Argentina/Buenos_Aires,
6658106740,,"AVENIDA LAMADRID 1299-1399",,-34.719985,-58.281713,,,,,America/Argentina/Buenos_Aires,
6410116232,,"FAMATINA 1700-1798",,-34.631244,-58.706764,,,,,America/Argentina/Buenos_Aires,
6412125722,,"LISANDRO DE LA TORRE Y JUAN JOSE CASTELLI",,-34.506501,-58.752659,,,,,America/Argentina/Buenos_Aires,
6434107848,,"PRES. TTE. GRAL. JUAN DOMINGO PERÓN 3619",,-34.667564,-58.414115,,,,,America/Argentina/Buenos_Aires,
203994,,"7499 PERON EVA AV.",,-34.673946,-58.501589,,,,,America/Argentina/Buenos_Aires,
6805111006,,"AVENIDA DE LOS CONSTITUYENTES 2001-2099",,-34.451621,-58.655329,,,,,America/Argentina/Buenos_Aires,
6410131379,,"INTENDENTE CARLOS RATTI 3599-3699",,-34.634898,-58.704148,,,,,America/Argentina/Buenos_Aires,
6840101969,,"JUSTO JOSÉ DE URQUIZA 4831",,-34.605804,-58.564455,,,,,America/Argentina/Buenos_Aires,
628126547,,"AVENIDA TENIENTE GENERAL DONATO ÁLVAREZ 2301-2399",,-34.770077,-58.325184,,,,,America/Argentina/Buenos_Aires,
6371123300,,"LINCOLN 3199",,-34.57558,-58.530701,,,,,America/Argentina/Buenos_Aires,
6539106068,,"ALMAGRO 900-998",,-34.688694,-58.675905,,,,,America/Argentina/Buenos_Aires,
6410125652,,"DEL LAZO 3799-3899",,-34.625612,-58.706305,,,,,America/Argentina/Buenos_Aires,
6490113054,,"BV. SANTA FE 1601-1683",,-34.738209,-58.417928,,,,,America/Argentina/Buenos_Aires,
6658118169,,"AVENIDA DARDO ROCHA 75",,-34.721638,-58.288593,,,,,America/Argentina/Buenos_Aires,
6427132692,,"BRIGADIER GENERAL JUAN MANUEL DE ROSAS 18500-18898",,-34.801832,-58.631777,,,,,America/Argentina/Buenos_Aires,
6490128152,,"AVENIDA EVA PERÓN 1102-1188",,-34.773198,-58.384281,,,,,America/Argentina/Buenos_Aires,
6539100303,,"PUEYRREDÓN 2606-2698",,-34.683017,-58.685819,,,,,America/Argentina/Buenos_Aires,
6490105689,,"ISAAC NEWTON 4102-4200",,-34.731317,-58.473417,,,,,America/Argentina/Buenos_Aires,
20533,,"1042 MITRE BARTOLOME",,-34.607568,-58.38132,,,,,America/Argentina/Buenos_Aires,
6805131355,,"JUAN BAUTISTA ALBERDI 309-399",,-34.44292,-58.59056,,,,,America/Argentina/Buenos_Aires,
6371119707,,"LAS PIEDRAS 3401",,-34.566288,-58.551193,,,,,America/Argentina/Buenos_Aires,
6412132130,,"AVENIDA CROACIA 806",,-34.524382,-58.785081,,,,,America/Argentina/Buenos_Aires,
6568101408,,"ALMAFUERTE 2300",,-34.653506,-58.636502,,,,,America/Argentina/Buenos_Aires,
6840124595,,"MARCELO T. DE ALVEAR 3687",,-34.620992,-58.551247,,,,,America/Argentina/Buenos_Aires,
6427113777,,"CARRASCO 2318",,-34.676761,-58.575251,,,,,America/Argentina/Buenos_Aires,
205195,,"6062 FERNANDEZ DE LA CRUZ F. GRAL. AV.",,-34.68464,-58.471917,,,,,America/Argentina/Buenos_Aires,
6568117457,,"AVENIDA DON BOSCO 6199-6299",,-34.681294,-58.617155,,,,,America/Argentina/Buenos_Aires,
6568113955,,"CARMEN DE PATAGONES 1809-1899",,-34.686861,-58.623685,,,,,America/Argentina/Buenos_Aires,
6490116301,,"PRESIDENTE JUAN DOMINGO PERÓN 2199-2249",,-34.741561,-58.43122,,,,,America/Argentina/Buenos_Aires,
6427116552,,"JULIO VERNE 1099-1199",,-34.851207,-58.640834,,,,,America/Argentina/Buenos_Aires,
6805115340,,"AVENIDA JUAN DOMINGO PERÓN 5326",,-34.426673,-58.691439,,,,,America/Argentina/Buenos_Aires,
201996,,"671 CARRASCO AV.",,-34.629884,-58.494385,,,,,America/Argentina/Buenos_Aires,
2032556,,"4496 DELLEPIANE LUIS TTE. GRAL.",,-34.663513,-58.472219,,,,,America/Argentina/Buenos_Aires,
6840108736,,"GABINO EZEIZA 8410-8498",,-34.573482,-58.599281,,,,,America/Argentina/Buenos_Aires,
6805133911,,"TOMÁS DE IRIARTE 2299-2399",,-34.42533,-58.702043,,,,,America/Argentina/Buenos_Aires,
205360,,"2019 IRIARTE GRAL.",,-34.648782,-58.37623,,,,,America/Argentina/Buenos_Aires,
635109653,,"AVENIDA BARTOLOMÉ MITRE 6612",,-34.706905,-58.314112,,,,,America/Argentina/Buenos_Aires,
202042,,"4510 NEWBERY JORGE AV.",,-34.592764,-58.455143,,,,,America/Argentina/Buenos_Aires,
6760134761,,"AVENIDA GASPAR CAMPOS 1023",,-34.571953,-58.693469,,,,,America/Argentina/Buenos_Aires,
635134620,,"AVENIDA BARTOLOMÉ MITRE 2456",,-34.674381,-58.35027,,,,,America/Argentina/Buenos_Aires,
628108806,,"AVENIDA LACAZE 4305-4333",,-34.805773,-58.337847,,,,,America/Argentina/Buenos_Aires,
6410119708,,"CAAGUAZÚ 1300-1398",,-34.672707,-58.679398,,,,,America/Argentina/Buenos_Aires,
6371113976,,"GENERAL PAZ 1500-1598",,-34.539647,-58.547369,,,,,America/Argentina/Buenos_Aires,
203400,,"1614 GUIDO",,-34.591485,-58.388142,,,,,America/Argentina/Buenos_Aires,
6410116943,,"CORONEL JOSÉ MARÍA VILELA 2000-2094",,-34.647898,-58.690711,,,,,America/Argentina/Buenos_Aires,
6805130289,,"ARISTÓBULO DEL VALLE",,-34.394483,-58.69766,,,,,America/Argentina/Buenos_Aires,
202399,,"1182 PASEO COLON AV.",,-34.621441,-58.368346,,,,,America/Argentina/Buenos_Aires,
6434114107,,"PERGAMINO 2201-2299",,-34.71903,-58.380183,,,,,America/Argentina/Buenos_Aires,
6805131657,,"AVENIDA BENAVIDEZ 3499-3563",,-34.403151,-58.682335,,,,,America/Argentina/Buenos_Aires,
628102578,,"AVENIDA LACAZE 6134",,-34.795365,-58.318643,,,,,America/Argentina/Buenos_Aires,
6760134496,,"INTENDENTE JUAN IRIGOIN 3001-3049",,-34.549716,-58.734972,,,,,America/Argentina/Buenos_Aires,
6658109851,,"AVENIDA 12 DE OCTUBRE 1900-1964",,-34.736764,-58.277936,,,,,America/Argentina/Buenos_Aires,
6658102374,,"ABRAHAM MENDELEVICH 1700-1748",,-34.768626,-58.30551,,,,,America/Argentina/Buenos_Aires,
6568125323,,"MAIPÚ 99-199",,-34.645538,-58.585814,,,,,America/Argentina/Buenos_Aires,
6490130438,,"30 DE SEPTIEMBRE 3150-3188",,-34.778248,-58.372168,,,,,America/Argentina/Buenos_Aires,
204748,,"3820 PIEDRA BUENA AV.",,-34.676812,-58.489025,,,,,America/Argentina/Buenos_Aires,
6434111307,,"GOBERNADOR GENERAL JUAN JOSÉ VIAMONTE 952",,-34.698188,-58.405595,,,,,America/Argentina/Buenos_Aires,
6427134600,,"GUILLERMO MARCONI 3733",,-34.714063,-58.591596,,,,,America/Argentina/Buenos_Aires,
6497134558,,"RUTA PROVINCIAL 7 Y CALLE 620",,-34.58304,-59.061818,,,,,America/Argentina/Buenos_Aires,
2032375,,"3786 SARMIENTO AV.",,-34.573014,-58.413179,,,,,America/Argentina/Buenos_Aires,
6434100001,,"AV. 9 DE JULIO 4401-4499",,-34.732383,-58.356312,,,,,America/Argentina/Buenos_Aires,
203177,,"3208 SAN JUAN AV.",,-34.624811,-58.410644,,,,,America/Argentina/Buenos_Aires,
6434104554,,"PRESIDENTE TENIENTE GENERAL JUAN DOMINGO PERÓN 3346",,-34.66932,-58.411743,,,,,America/Argentina/Buenos_Aires,
6658123703,,"AVENIDA MITRE 5233-5299",,-34.747316,-58.225726,,,,,America/Argentina/Buenos_Aires,
628117476,,"AVENIDA SAN MARTÍN 5681",,-34.777867,-58.332201,,,,,America/Argentina/Buenos_Aires,
6490109662,,"GRAL. JUAN GREGORIO DE LAS HERAS 501-599",,-34.749366,-58.402933,,,,,America/Argentina/Buenos_Aires,
6260129136,,"PARAGUAY",,-34.841151,-58.505869,,,,,America/Argentina/Buenos_Aires,
6490133514,,"EIBAR 201-299",,-34.740892,-58.458763,,,,,America/Argentina/Buenos_Aires,
6427113241,,"AVENIDA VÉLEZ SARSFIELD 950-998",,-34.688278,-58.496019,,,,,America/Argentina/Buenos_Aires,
691105882,,"AVENIDA DARDO ROCHA 737",,-34.771073,-58.243699,,,,,America/Argentina/Buenos_Aires,
6408112875,,"ALEJANDRO MALASPINA 1199-1299",,-34.602635,-58.64369,,,,,America/Argentina/Buenos_Aires,
6441129754,,"AVENIDA 60_CALLE 139",,-34.951316,-57.974959,,,,,America/Argentina/Buenos_Aires,
6756119277,,"PARANÁ 2291",,-34.501609,-58.506079,,,,,America/Argentina/Buenos_Aires,
6427100146,,"AVENIDA INTENDENTE ESTEBAN CROVARA 3520",,-34.694886,-58.532936,,,,,America/Argentina/Buenos_Aires,
6408125990,,"DOCTOR MARIO BRAVO 299",,-34.621049,-58.628257,,,,,America/Argentina/Buenos_Aires,
6539100949,,"MARIO BRAVO 1353-1399",,-34.683777,-58.706657,,,,,America/Argentina/Buenos_Aires,
6756128331,,"LUIS MARÍA DRAGO 1877",,-34.517373,-58.549738,,,,,America/Argentina/Buenos_Aires,
205261,,"2206 PERON EVA AV.",,-34.638129,-58.45267,,,,,America/Argentina/Buenos_Aires,
691102490,,"HEROES DE MALVINAS 2101-2255",,-34.814825,-58.191555,,,,,America/Argentina/Buenos_Aires,
6756105017,,"AVENIDA CENTENARIO 555",,-34.470466,-58.51623,,,,,America/Argentina/Buenos_Aires,
6658118356,,"GENERAL ACHA 3899-3999",,-34.75981,-58.272851,,,,,America/Argentina/Buenos_Aires,
698131264,,"GENERAL SAVIO_PALO BLANCO",,-34.875858,-57.855594,,,,,America/Argentina/Buenos_Aires,
6490101483,,"GENERAL HORNOS 3118",,-34.729442,-58.41577,,,,,America/Argentina/Buenos_Aires,
6760115880,,"GENERAL JOSÉ DE SAN MARTÍN",,-34.559099,-58.652855,,,,,America/Argentina/Buenos_Aires,
6840106373,,"GACETA DE BUENOS AIRES 3602-3700",,-34.637874,-58.53651,,,,,America/Argentina/Buenos_Aires,
6490101097,,"CAAGUAZÚ 700-798",,-34.74847,-58.34429,,,,,America/Argentina/Buenos_Aires,
201604,,"1883 LOPE DE VEGA AV.",,-34.622708,-58.513662,,,,,America/Argentina/Buenos_Aires,
204499,,"706 PUEYRREDON AV.",,-34.601725,-58.404774,,,,,America/Argentina/Buenos_Aires,
6861124176,,"PRESIDENTE SANTIAGO DERQUI 5507-5599",,-34.523568,-58.534967,,,,,America/Argentina/Buenos_Aires,
6568111007,,"AVENIDA RIVADAVIA 20031-20099",,-34.652304,-58.641947,,,,,America/Argentina/Buenos_Aires,
6274118912,,"AVENIDA TENIENTE GENERAL JUAN DOMINGO PERÓN 1200-1278",,-34.804403,-58.24631,,,,,America/Argentina/Buenos_Aires,
6441117069,,"CALLE 60_CALLE 135.",,-34.947421,-57.970674,,,,,America/Argentina/Buenos_Aires,
6427126558,,"PERIBEBUY 5700-5798",,-34.711697,-58.573727,,,,,America/Argentina/Buenos_Aires,
6658103434,,"AVENIDA HIPÓLITO YRIGOYEN 575-599",,-34.722864,-58.260663,,,,,America/Argentina/Buenos_Aires,
2032585,,"1408 OLIVERA AV.",,-34.654957,-58.480321,,,,,America/Argentina/Buenos_Aires,
6427106111,,"SENGUEL 6799-6829",,-34.762272,-58.630909,,,,,America/Argentina/Buenos_Aires,
6490104075,,"AVENIDA EVA PERÓN 1720",,-34.768235,-58.375009,,,,,America/Argentina/Buenos_Aires,
6568118479,,"CARMEN DE PATAGONES 1724",,-34.685668,-58.625153,,,,,America/Argentina/Buenos_Aires,
6760108439,,"MAESTRO EDUARDO FERREYRA 3752",,-34.552793,-58.764246,,,,,America/Argentina/Buenos_Aires,
6434121934,,"PERGAMINO 3269",,-34.72708,-58.388578,,,,,America/Argentina/Buenos_Aires,
6371119963,,"1? DE AGOSTO DE 1806 4994",,-34.561581,-58.571117,,,,,America/Argentina/Buenos_Aires,
6749103131,,"AVENIDA PRESIDENTE TENIENTE GENERAL JUAN DOMINGO PERÓN 3646",,-34.45599,-58.535248,,,,,America/Argentina/Buenos_Aires,
6840119100,,"RUTA PROVINCIAL 8 Y GABINO EZEIZA",,-34.562752,-58.613571,,,,,America/Argentina/Buenos_Aires,
6568122221,,"CARLOS CASARES 1022",,-34.649481,-58.642136,,,,,America/Argentina/Buenos_Aires,
6840111455,,"AURELIO MONTANELLI 1630",,-34.578593,-58.597361,,,,,America/Argentina/Buenos_Aires,
6568126103,,"SALVADOR CURUTCHET 2300-2398",,-34.634679,-58.638854,,,,,America/Argentina/Buenos_Aires,
6434125315,,"TAGLE 3733-3799",,-34.698053,-58.42778,,,,,America/Argentina/Buenos_Aires,
205738,,"7352 RIVADAVIA AV.",,-34.630511,-58.468979,,,,,America/Argentina/Buenos_Aires,
628114063,,"AVENIDA MONTEVERDE 1499-1549",,-34.829192,-58.376226,,,,,America/Argentina/Buenos_Aires,
2032579,,"1787 CATAMARCA",,-34.631044,-58.402137,,,,,America/Argentina/Buenos_Aires,
6568119251,,"DOCTOR LUIS GÜEMES 100-148",,-34.641248,-58.579052,,,,,America/Argentina/Buenos_Aires,
6756119444,,"ENTRE RÍOS 2601-2689",,-34.496813,-58.533212,,,,,America/Argentina/Buenos_Aires,
6427116844,,"SENGUEL 6600-6698",,-34.761919,-58.628459,,,,,America/Argentina/Buenos_Aires,
20367,,"406 MONTES DE OCA MANUEL AV.",,-34.63336,-58.375677,,,,,America/Argentina/Buenos_Aires,
6658125578,,"HUMBERTO PRIMO 550-594",,-34.721028,-58.248887,,,,,America/Argentina/Buenos_Aires,
6756128484,,"PICHINCHA 520",,-34.502024,-58.5511,,,,,America/Argentina/Buenos_Aires,
6805125744,,"JOSÉ MARÍA PAZ 599-649",,-34.457745,-58.612657,,,,,America/Argentina/Buenos_Aires,
6441124074,,"DIAGONAL 25 DE MAYO 92_CALLE CANTILO",,-34.866266,-58.043014,,,,,America/Argentina/Buenos_Aires,
6490130046,,"AVENIDA JUAN XXIII 499-599",,-34.770043,-58.44154,,,,,America/Argentina/Buenos_Aires,
6490109433,,"GENERAL ARENALES 1701-1799",,-34.740837,-58.386697,,,,,America/Argentina/Buenos_Aires,
635105480,,"MUJERES ARGENTINAS 1547-1599",,-34.672898,-58.36077,,,,,America/Argentina/Buenos_Aires,
6658114247,,"TRIUNVIRATO 3000-3098",,-34.750425,-58.285769,,,,,America/Argentina/Buenos_Aires,
6568109229,,"CONGRESO 1350-1398",,-34.641697,-58.593922,,,,,America/Argentina/Buenos_Aires,
691116013,,"AVENIDA ANTÁRTIDA ARGENTINA 1-98",,-34.806382,-58.225241,,,,,America/Argentina/Buenos_Aires,
201240,,"3722 CERVANTES",,-34.608895,-58.525959,,,,,America/Argentina/Buenos_Aires,
6515119754,,"AVENIDA PRESIDENTE ARTURO U. ILLIA 10701-10799",,-34.487116,-58.773219,,,,,America/Argentina/Buenos_Aires,
6252121517,,"AV. FRUCTUOSO DÍAZ Y ALFONSINA STORNI BUENOS AIRES",,-34.421901,-58.742009,,,,,America/Argentina/Buenos_Aires,
6434109635,,"MAXIMO PAZ 801-869",,-34.693337,-58.397929,,,,,America/Argentina/Buenos_Aires,
2031579,,"3382 JANER ANA MARIA",,-34.659417,-58.449559,,,,,America/Argentina/Buenos_Aires,
6756101591,,"PEDRO DE MENDOZA 155",,-34.467525,-58.504331,,,,,America/Argentina/Buenos_Aires,
6441105493,,"AVENIDA 72_CALLE 23",,-34.946409,-57.943906,,,,,America/Argentina/Buenos_Aires,
6805112080,,"AVENIDA HIPÓLITO YRIGOYEN 3499-3599",,-34.482548,-58.609418,,,,,America/Argentina/Buenos_Aires,
6490104136,,"CAAGUAZÚ 99-199",,-34.742172,-58.34671,,,,,America/Argentina/Buenos_Aires,
6408123738,,"GERMAN ARGERICH 1450-1498",,-34.590431,-58.639237,,,,,America/Argentina/Buenos_Aires,
6490115302,,"MADRID 1399-1499",,-34.780736,-58.429165,,,,,America/Argentina/Buenos_Aires,
6274101987,,"AVENIDA GENERAL JOSÉ DE SAN MARTÍN 2600-2698",,-34.802871,-58.278275,,,,,America/Argentina/Buenos_Aires,
6427124902,,"AV. GRAL. ROJO 655-697",,-34.738052,-58.561555,,,,,America/Argentina/Buenos_Aires,
6805107952,,"AVENIDA CAZÓN 1-99",,-34.434047,-58.567241,,,,,America/Argentina/Buenos_Aires,
201812,,"175 GALLARDO ANGEL AV.",,-34.603416,-58.434792,,,,,America/Argentina/Buenos_Aires,
6427109319,,"BRIGADIER GENERAL JUAN MANUEL DE ROSAS 22900-22922",,-34.843537,-58.652811,,,,,America/Argentina/Buenos_Aires,
6861134228,,"GENERAL ROCA 3095",,-34.53586,-58.50102,,,,,America/Argentina/Buenos_Aires,
628126647,,"LEROUX 1553",,-34.789237,-58.350232,,,,,America/Argentina/Buenos_Aires,
6760134074,,"MARCOS SASTRE 5500-5600",,-34.56882,-58.756575,,,,,America/Argentina/Buenos_Aires,
628109723,,"ADOLFO ALSINA 2550-2598",,-34.81535,-58.366091,,,,,America/Argentina/Buenos_Aires,
6840126017,,"AVENIDA BERNABE MARQUEZ 2065",,-34.58111,-58.601587,,,,,America/Argentina/Buenos_Aires,
6568114575,,"NUESTRA SEÑORA DE BUEN VIAJE 1099-1199",,-34.651607,-58.625028,,,,,America/Argentina/Buenos_Aires,
6840111014,,"AVENIDA EVA PERÓN 9514",,-34.562703,-58.606984,,,,,America/Argentina/Buenos_Aires,
2033205,,"2765 CABILDO AV.",,-34.556607,-58.461495,,,,,America/Argentina/Buenos_Aires,
6371132820,,"CALLE 58 6002-6100",,-34.590511,-58.558991,,,,,America/Argentina/Buenos_Aires,
20617,,"861 DE MAYO AV.",,-34.608861,-58.378636,,,,,America/Argentina/Buenos_Aires,
6658114415,,"ALSINA 258",,-34.720772,-58.25685,,,,,America/Argentina/Buenos_Aires,
6560124641,,"AV. ROCA Y UHART - LOS NOGALES",,-34.598579,-58.729949,,,,,America/Argentina/Buenos_Aires,
203173,,"3181 INDEPENDENCIA AV.",,-34.620266,-58.410531,,,,,America/Argentina/Buenos_Aires,
6749114678,,"URUGUAY 3599-3699",,-34.468828,-58.561163,,,,,America/Argentina/Buenos_Aires,
203709,,"2264 CASTRO",,-34.638947,-58.418669,,,,,America/Argentina/Buenos_Aires,
2032213,,"378 MONTES DE OCA MANUEL AV.",,-34.632956,-58.375818,,,,,America/Argentina/Buenos_Aires,
6840134593,,"AVIADOR TENIENTE BENJAMÍN MATIENZO 2326-2398",,-34.594266,-58.592958,,,,,America/Argentina/Buenos_Aires,
6270103042,,"CONQUISTA DE DESIERTO 301-399",,-34.85478,-58.523097,,,,,America/Argentina/Buenos_Aires,
6490117564,,"LARRAZABAL 2401-2449",,-34.702674,-58.44044,,,,,America/Argentina/Buenos_Aires,
6539125056,,"AVENIDA JOSÉ DE SAN MARTÍN 3600-3698",,-34.690489,-58.735725,,,,,America/Argentina/Buenos_Aires,
6427131427,,"PERIBEBUY 1133-1199",,-34.680126,-58.53977,,,,,America/Argentina/Buenos_Aires,
203999,,"5149 DEL LIBERTADOR AV.",,-34.562768,-58.438806,,,,,America/Argentina/Buenos_Aires,
6434119992,,"25 DE MAYO",,-34.707861,-58.391163,,,,,America/Argentina/Buenos_Aires,
2031470,,"5308 CONGRESO AV.",,-34.571072,-58.492674,,,,,America/Argentina/Buenos_Aires,
628128295,,"SANTA ANA 1500-1598",,-34.768034,-58.339835,,,,,America/Argentina/Buenos_Aires,
6840118553,,"MARIQUITA SÁNCHEZ DE THOMPSON 1099-1199",,-34.567607,-58.603016,,,,,America/Argentina/Buenos_Aires,
6252110025,,"AVENIDA GENERAL SAN MARTÍN Y SAN ISIDRO",,-34.333035,-58.773417,,,,,America/Argentina/Buenos_Aires,
203213,,"2940 LAS HERAS GENERAL AV.",,-34.583424,-58.402837,,,,,America/Argentina/Buenos_Aires,
6658119351,,"AV. ISIDORO IRIARTE 1399-1449",,-34.714654,-58.230434,,,,,America/Argentina/Buenos_Aires,
6568119835,,"TUCUMÁN 1499-1599",,-34.642123,-58.630273,,,,,America/Argentina/Buenos_Aires,
20605,,"1385 DE MAYO AV.",,-34.609359,-58.385983,,,,,America/Argentina/Buenos_Aires,
6434100730,,"CAMINO GENERAL BELGRANO 2962-3000",,-34.708204,-58.355206,,,,,America/Argentina/Buenos_Aires,
628123056,,"JUAN JOSÉ CASTELLI 899-961",,-34.800617,-58.388445,,,,,America/Argentina/Buenos_Aires,
6840116137,,"PRESIDENTE JUAN DOMINGO PERÓN 7873",,-34.583101,-58.599086,,,,,America/Argentina/Buenos_Aires,
20910,,"5961 CORDOBA AV.",,-34.584994,-58.444132,,,,,America/Argentina/Buenos_Aires,
6408114053,,"LA PATRIA 3200-3298",,-34.614316,-58.63644,,,,,America/Argentina/Buenos_Aires,
203397,,"1573 SANTA FE AV.",,-34.595781,-58.389499,,,,,America/Argentina/Buenos_Aires,
6371113818,,"AVENIDA BRIGADIER GENERAL JUAN MANUEL DE ROSAS 5619",,-34.560575,-58.587569,,,,,America/Argentina/Buenos_Aires,
202970,,"1985 MIGUEL ANGEL",,-34.603594,-58.471702,,,,,America/Argentina/Buenos_Aires,
6412106969,,"AVENIDA PRESIDENTE JUAN DOMINGO PERÓN Y PEDRO DE MENDOZA",,-34.52356,-58.737587,,,,,America/Argentina/Buenos_Aires,
6840123308,,"AVENIDA MILITAR 4102-4200",,-34.625847,-58.552373,,,,,America/Argentina/Buenos_Aires,
6427117823,,"GUILLERMO MARCONI 4599-4679",,-34.720189,-58.583439,,,,,America/Argentina/Buenos_Aires,
6427134545,,"AVENIDA LURO 4449-4499",,-34.737089,-58.601931,,,,,America/Argentina/Buenos_Aires,
6408127660,,"ALEJANDRO MALASPINA 1000-1098",,-34.604623,-58.641192,,,,,America/Argentina/Buenos_Aires,
6861105263,,"AVENIDA MAIPÚ 3750",,-34.501342,-58.495855,,,,,America/Argentina/Buenos_Aires,
6252128101,,"AVENIDA EUGENIA TAPIA DE CRUZ Y COLECTORA ESTE RAMAL ESCOBAR 2",,-34.353397,-58.801021,,,,,America/Argentina/Buenos_Aires,
6760125191,,"AVENIDA PRESIDENTE JUAN DOMINGO PERÓN Y INT. ARRICAU",,-34.528437,-58.730919,,,,,America/Argentina/Buenos_Aires,
204821,,"3704 ALBARI?O",,-34.671671,-58.469137,,,,,America/Argentina/Buenos_Aires,
6434126174,,"BOULEVARD DE LOS ITALIANOS 2902-3000",,-34.735468,-58.370823,,,,,America/Argentina/Buenos_Aires,
6427115806,,"UNANUE 1799-1899",,-34.690456,-58.484815,,,,,America/Argentina/Buenos_Aires,
206405,,"3118 CAMPILLO",,-34.590322,-58.479028,,,,,America/Argentina/Buenos_Aires,
6427115707,,"PETIRROJO 5372",,-34.751635,-58.618084,,,,,America/Argentina/Buenos_Aires,
2073,,"692 REGIMIENTO DE PATRICIOS AV.",,-34.636356,-58.369823,,,,,America/Argentina/Buenos_Aires,
6568116997,,"AVENIDA DON BOSCO 3999-4069",,-34.667967,-58.60251,,,,,America/Argentina/Buenos_Aires,
202179,,"4579 SARMIENTO",,-34.604035,-58.430036,,,,,America/Argentina/Buenos_Aires,
201874,,"1087 RAMOS MEJIA",,-34.603187,-58.433799,,,,,America/Argentina/Buenos_Aires,
6427130832,,"AV. DR. IGNACIO ARIETA 4900-4998",,-34.694187,-58.539891,,,,,America/Argentina/Buenos_Aires,
6490120682,,"AVENIDA GENERAL MARTÍN RODRÍGUEZ 1400-1498",,-34.73566,-58.434064,,,,,America/Argentina/Buenos_Aires,
6658105988,,"AVENIDA HIPÓLITO YRIGOYEN 7",,-34.713615,-58.267568,,,,,America/Argentina/Buenos_Aires,
6861115373,,"PARANÁ 2320",,-34.501759,-58.506398,,,,,America/Argentina/Buenos_Aires,
205448,,"3383 ALCORTA AMANCIO AV.",,-34.651535,-58.407223,,,,,America/Argentina/Buenos_Aires,
6805115168,,"CASEROS 3049-3099",,-34.43527,-58.668865,,,,,America/Argentina/Buenos_Aires,
207101,,"5993 DIRECTORIO AV.",,-34.657233,-58.498699,,,,,America/Argentina/Buenos_Aires,
6658115304,,"AVENIDA GENERAL MOSCONI 4105-4189",,-34.768963,-58.283575,,,,,America/Argentina/Buenos_Aires,
6408109955,,"EVA PERÓN 1428",,-34.599105,-58.64239,,,,,America/Argentina/Buenos_Aires,
6490119677,,"GRAL. JUAN GREGORIO DE LAS HERAS 402-500",,-34.749677,-58.400749,,,,,America/Argentina/Buenos_Aires,
6410118676,,"MARTÍN FIERRO 3100-3398",,-34.625911,-58.694238,,,,,America/Argentina/Buenos_Aires,
6434100229,,"AVENIDA TEODORO SÁNCHEZ DE BUSTAMANTE 2124",,-34.701737,-58.364533,,,,,America/Argentina/Buenos_Aires,
6427100536,,"SENGUEL 6830-6898",,-34.762439,-58.632016,,,,,America/Argentina/Buenos_Aires,
6861128410,,"AVENIDA BARTOLOMÉ MITRE 3552-3600",,-34.51842,-58.525618,,,,,America/Argentina/Buenos_Aires,
6427101914,,"AVENIDA INTENDENTE ESTEBAN CROVARA 1793",,-34.683934,-58.516816,,,,,America/Argentina/Buenos_Aires,
201590,,"1897 EL ALFABETO",,-34.600461,-58.452587,,,,,America/Argentina/Buenos_Aires,
691115188,,"CALLE 359_AVENIDA DOCTOR LUIS AGOTE",,-34.791962,-58.2057,,,,,America/Argentina/Buenos_Aires,
6427125791,,"GENERAL ALVARADO 575",,-34.651021,-58.566311,,,,,America/Argentina/Buenos_Aires,
6371116990,,"AVENIDA 101 DOCTOR RICARDO BALBÍN 5002-5050",,-34.563864,-58.57441,,,,,America/Argentina/Buenos_Aires,
6434122893,,"AVENIDA GENERAL JOSÉ DE SAN MARTÍN 3602-3700",,-34.709054,-58.419501,,,,,America/Argentina/Buenos_Aires,
6427117672,,"AVENIDA LURO 4400-4408",,-34.736209,-58.603066,,,,,America/Argentina/Buenos_Aires,
6434112261,,"CAMINO GENERAL BELGRANO 2708-2900",,-34.705169,-58.358665,,,,,America/Argentina/Buenos_Aires,
204871,,"5714 LA PAMPA",,-34.583279,-58.486166,,,,,America/Argentina/Buenos_Aires,
205588,,"GUIRALDES INT.",,-34.545406,-58.440477,,,,,America/Argentina/Buenos_Aires,
628113155,,"LEANDRO N. ALEM 99-199",,-34.831277,-58.39787,,,,,America/Argentina/Buenos_Aires,
6260119532,,"AVENIDA PEDRO SUÁREZ 851-895",,-34.825358,-58.446867,,,,,America/Argentina/Buenos_Aires,
6490102390,,"LAS CASUARINAS 4600-4698",,-34.745625,-58.346495,,,,,America/Argentina/Buenos_Aires,
6427133958,,"LUIS VERNET 5724",,-34.742813,-58.587834,,,,,America/Argentina/Buenos_Aires,
2033007,,"2365 CASEROS AV.",,-34.635271,-58.395553,,,,,America/Argentina/Buenos_Aires,
6560129722,,"MURILLO 1000-1298",,-34.566191,-58.770961,,,,,America/Argentina/Buenos_Aires,
6861129711,,"AMANCIO ALCORTA 4499-4599",,-34.541104,-58.541345,,,,,America/Argentina/Buenos_Aires,
6658113826,,"AVENIDA MITRE 950-998",,-34.726418,-58.250288,,,,,America/Argentina/Buenos_Aires,
6434122389,,"EVA PERÓN 4202-4300",,-34.72755,-58.354759,,,,,America/Argentina/Buenos_Aires,
6427107083,,"ALMAFUERTE 2835",,-34.675378,-58.563136,,,,,America/Argentina/Buenos_Aires,
20968,,"5504 NOGOYA",,-34.621502,-58.519696,,,,,America/Argentina/Buenos_Aires,
2031318,,"801 BIEDMA JOSE JUAN",,-34.615687,-58.455086,,,,,America/Argentina/Buenos_Aires,
2032974,,"6060 DIRECTORIO AV.",,-34.657814,-58.499392,,,,,America/Argentina/Buenos_Aires,
2033270,,"1399 CURAPALIGUE AV.",,-34.638463,-58.444994,,,,,America/Argentina/Buenos_Aires,
6568132219,,"AVENIDA DON BOSCO 3829-3899",,-34.666627,-58.601002,,,,,America/Argentina/Buenos_Aires,
6371125376,,"TRIUNVIRATO 8064",,-34.569354,-58.589889,,,,,America/Argentina/Buenos_Aires,
6427127233,,"PETIRROJO 5401-5499",,-34.753221,-58.620069,,,,,America/Argentina/Buenos_Aires,
6274127183,,"AVENIDA EVA PERÓN 6324",,-34.839361,-58.278498,,,,,America/Argentina/Buenos_Aires,
6568134209,,"SALVADOR CURUTCHET 1747-1799",,-34.635256,-58.631988,,,,,America/Argentina/Buenos_Aires,
6638130001,,"SANTA EULALIA Y CASEROS BUENOS AIRES",,-34.452938,-58.784324,,,,,America/Argentina/Buenos_Aires,
6441104016,,"AVENIDA 66_185",,-34.999094,-58.015039,,,,,America/Argentina/Buenos_Aires,
6658102479,,"CAMINO GENERAL BELGRANO 499-599",,-34.733521,-58.325971,,,,,America/Argentina/Buenos_Aires,
628113910,,"AVENIDA BERLIN 299-399",,-34.849,-58.380087,,,,,America/Argentina/Buenos_Aires,
6515110448,,"AVENIDA PRESIDENTE ARTURO U. ILLIA 6909-6999",,-34.512797,-58.725975,,,,,America/Argentina/Buenos_Aires,
206401,,"4048 ALCORTA AMANCIO AV.",,-34.656424,-58.415225,,,,,America/Argentina/Buenos_Aires,
6371123974,,"QUINTANA 5201",,-34.538452,-58.548359,,,,,America/Argentina/Buenos_Aires,
203663,,"4889 GARZON EUGENIO GENERAL",,-34.651737,-58.48621,,,,,America/Argentina/Buenos_Aires,
6371123477,,"MORENO 4218",,-34.581501,-58.539824,,,,,America/Argentina/Buenos_Aires,
2032671,,"2759 CASEROS AV.",,-34.636358,-58.401454,,,,,America/Argentina/Buenos_Aires,
635120515,,"CORONEL LACARRA 1665-1699",,-34.685225,-58.374363,,,,,America/Argentina/Buenos_Aires,
6539132586,,"ESTEBAN ECHEVERRÍA 700-798",,-34.669858,-58.691,,,,,America/Argentina/Buenos_Aires,
6756134230,,"BERNARDO DE IRIGOYEN 285",,-34.507908,-58.568634,,,,,America/Argentina/Buenos_Aires,
6490104163,,"PLUMERILLO 349",,-34.726006,-58.425095,,,,,America/Argentina/Buenos_Aires,
207676,,"4303 OBLIGADO RAFAEL AV.COSTANERA",,-34.557052,-58.412,,,,,America/Argentina/Buenos_Aires,
6441102000,,"AVENIDA 1_CALLE 42",,-34.90382,-57.950966,,,,,America/Argentina/Buenos_Aires,
6490119318,,"JOSÉ IGNACIO GORRITI 401-433",,-34.761543,-58.403269,,,,,America/Argentina/Buenos_Aires,
6515107091,,"AVENIDA PRESIDENTE ARTURO U. ILLIA 10301-10349",,-34.490828,-58.767745,,,,,America/Argentina/Buenos_Aires,
20923,,"1583 RAMIREZ DE VELASCO JUAN",,-34.58894,-58.445721,,,,,America/Argentina/Buenos_Aires,
635121245,,"BOULEVARD DE LOS ITALIANOS 792",,-34.70421,-58.334857,,,,,America/Argentina/Buenos_Aires,
6434101809,,"VERACRUZ 2601-2699",,-34.677208,-58.410919,,,,,America/Argentina/Buenos_Aires,
6749129506,,"MAIPÚ 1802-1850",,-34.447662,-58.55806,,,,,America/Argentina/Buenos_Aires,
6805125051,,"SAAVEDRA 499-599",,-34.477111,-58.622929,,,,,America/Argentina/Buenos_Aires,
6427110211,,"JUAN C. CAMPIÓN 1699-1799",,-34.710844,-58.523615,,,,,America/Argentina/Buenos_Aires,
6760118520,,"TENIENTE GENERAL RICCHIERI",,-34.547182,-58.677645,,,,,America/Argentina/Buenos_Aires,
6805116483,,"ITALIA 1200-1298",,-34.424442,-58.57509,,,,,America/Argentina/Buenos_Aires,
6840122585,,"GENERAL PAZ 855",,-34.648151,-58.529503,,,,,America/Argentina/Buenos_Aires,
6568121532,,"PRIMERA JUNTA 485",,-34.640702,-58.598322,,,,,America/Argentina/Buenos_Aires,
2032618,,"15915 PAZ GRAL. AV.",,-34.69081,-58.480799,,,,,America/Argentina/Buenos_Aires,
6756127270,,"CORRIENTES 165",,-34.492992,-58.501323,,,,,America/Argentina/Buenos_Aires,
201715,,"1318 MARECHAL LEOPOLDO",,-34.603352,-58.440834,,,,,America/Argentina/Buenos_Aires,
635123733,,"BRAGADO 6273",,-34.701975,-58.31341,,,,,America/Argentina/Buenos_Aires,
6412117549,,"ORIBE 3000-3198",,-34.5201,-58.768615,,,,,America/Argentina/Buenos_Aires,
203221,,"1944 DEL LIBERTADOR AV.",,-34.582309,-58.400812,,,,,America/Argentina/Buenos_Aires,
6274101668,,"AVENIDA CALCHAQUÍ 2850-2892",,-34.800564,-58.239136,,,,,America/Argentina/Buenos_Aires,
6805124395,,"ALMTE BROWN 600-698",,-34.456769,-58.610815,,,,,America/Argentina/Buenos_Aires,
204788,,"6574 BARCA CABO DE HORNOS",,-34.679305,-58.489103,,,,,America/Argentina/Buenos_Aires,
6252106670,,"AVENIDA GENERAL SAN MARTÍN Y LAS ANEMONAS",,-34.331156,-58.769352,,,,,America/Argentina/Buenos_Aires,
628113238,,"CHACO 2399-2495",,-34.782521,-58.345418,,,,,America/Argentina/Buenos_Aires,
203984,,"6518 TANDIL",,-34.66147,-58.501831,,,,,America/Argentina/Buenos_Aires,
6434102615,,"CALLE MARCO AVELLANEDA 5695",,-34.684166,-58.437928,,,,,America/Argentina/Buenos_Aires,
6490130506,,"DORREGO 801-899",,-34.780755,-58.401351,,,,,America/Argentina/Buenos_Aires,
6658107054,,"DOCTOR EMILIO TORRE 1999-2049",,-34.762064,-58.324442,,,,,America/Argentina/Buenos_Aires,
6410119817,,"INTENDENTE PÉREZ QUINTANA 612",,-34.65944,-58.679856,,,,,America/Argentina/Buenos_Aires,
635108445,,"PASAJE CHIVILCOY 16",,-34.692436,-58.332412,,,,,America/Argentina/Buenos_Aires,
202574,,"1470 IRIGOYEN BERNARDO DE",,-34.625658,-58.379139,,,,,America/Argentina/Buenos_Aires,
6756107289,,"AVENIDA AVELINO ROLÓN 1185-1191",,-34.50122,-58.559365,,,,,America/Argentina/Buenos_Aires,
6427100006,,"EL JUME 80",,-34.726693,-58.523107,,,,,America/Argentina/Buenos_Aires,
6412131583,,"JUANA MANUELA GORRITI 1200-1298",,-34.518497,-58.779864,,,,,America/Argentina/Buenos_Aires,
6658110619,,"ANDRADE 571",,-34.706106,-58.272661,,,,,America/Argentina/Buenos_Aires,
6560103783,,"AVENIDA GENERAL JULIO A. ROCA 3400",,-34.588253,-58.743978,,,,,America/Argentina/Buenos_Aires,
205259,,"2410 PERON EVA AV.",,-34.640111,-58.455132,,,,,America/Argentina/Buenos_Aires,
6638131282,,"LUIS GONNET Y JUAN DE LA BRUYERE",,-34.45549,-58.792599,,,,,America/Argentina/Buenos_Aires,
6427108120,,"CHICLANA 699-799",,-34.684591,-58.527908,,,,,America/Argentina/Buenos_Aires,
6408134440,,"POTOSÍ 3099-3199",,-34.58132,-58.654342,,,,,America/Argentina/Buenos_Aires,
635131600,,"GELLY Y OBES 2-100",,-34.682651,-58.342119,,,,,America/Argentina/Buenos_Aires,
6408115504,,"MASCAGNI 2499-2599",,-34.598075,-58.644135,,,,,America/Argentina/Buenos_Aires,
6805107557,,"AVENIDA CAZÓN 1544",,-34.423127,-58.580149,,,,,America/Argentina/Buenos_Aires,
6434116737,,"EVA PERÓN 4601-4699",,-34.730121,-58.351382,,,,,America/Argentina/Buenos_Aires,
6260119438,,"CAMINO DE CINTURA 5867",,-34.756328,-58.484165,,,,,America/Argentina/Buenos_Aires,
635114505,,"CENTENARIO URUGUAYO 1897",,-34.71059,-58.349148,,,,,America/Argentina/Buenos_Aires,
6840130210,,"NUESTRA SEÑORA DE LA MERCED 4387",,-34.609382,-58.557101,,,,,America/Argentina/Buenos_Aires,
6427116055,,"AVENIDA LURO 3199-3299",,-34.729711,-58.611929,,,,,America/Argentina/Buenos_Aires,
6490103924,,"CERRITO 1301-1399",,-34.76178,-58.387428,,,,,America/Argentina/Buenos_Aires,
6840112170,,"AVENIDA EVA PERÓN 9000-9048",,-34.562725,-58.601521,,,,,America/Argentina/Buenos_Aires,
2032336,,"2893 GAONA AV.",,-34.616625,-58.466514,,,,,America/Argentina/Buenos_Aires,
6756121247,,"AVENIDA YERBAL 975-999",,-34.509586,-58.552451,,,,,America/Argentina/Buenos_Aires,
6490109481,,"DOCTOR JORGE MELBER 1500",,-34.808533,-58.425666,,,,,America/Argentina/Buenos_Aires,
6490124577,,"GENERAL EUSTAQUIO FRÍAS 301-399",,-34.762363,-58.422615,,,,,America/Argentina/Buenos_Aires,
6805114681,,"AVENIDA SANTA MARÍA DE LAS CONCHAS 6500-6588",,-34.399808,-58.642789,,,,,America/Argentina/Buenos_Aires,
6408108982,,"JOSÉ GARIBALDI 3000-3048",,-34.576208,-58.652755,,,,,America/Argentina/Buenos_Aires,
6371127949,,"INDEPENDENCIA 6114-6200",,-34.540735,-58.566847,,,,,America/Argentina/Buenos_Aires,
6515116501,,"CORONEL BOGADO 1-49",,-34.501599,-58.712923,,,,,America/Argentina/Buenos_Aires,
6805118195,,"LUCIO MELENDEZ 599-699",,-34.485487,-58.63583,,,,,America/Argentina/Buenos_Aires,
6861126666,,"PRESBITERO JULIAN NAVARRO 5733",,-34.529434,-58.536337,,,,,America/Argentina/Buenos_Aires,
6434134688,,"AV. CNEL. LEÓNARDO ROSALES 2458",,-34.711666,-58.410725,,,,,America/Argentina/Buenos_Aires,
6658100392,,"ACCESO A AVENIDA TOMÁS FLORES 1799-1899",,-34.744643,-58.327981,,,,,America/Argentina/Buenos_Aires,
203539,,"4463 RIVADAVIA AV.",,-34.614763,-58.428506,,,,,America/Argentina/Buenos_Aires,
6427128865,,"DE LA RIVERA NORTE",,-34.718337,-58.475195,,,,,America/Argentina/Buenos_Aires,
635101229,,"GENERAL ARREDONDO 4502-4600",,-34.699035,-58.341673,,,,,America/Argentina/Buenos_Aires,
201665,,"417 DON PEDRO DE MENDOZA AV.",,-34.627462,-58.358372,,,,,America/Argentina/Buenos_Aires,
628116140,,"GABOTO 5400-5498",,-34.762377,-58.349763,,,,,America/Argentina/Buenos_Aires,
6434117900,,"AVENIDA GENERAL JOSÉ DE SAN MARTÍN 4330",,-34.713047,-58.427142,,,,,America/Argentina/Buenos_Aires,
6658129648,,"CALLE 896 2301-2399",,-34.766232,-58.322506,,,,,America/Argentina/Buenos_Aires,
6441114940,,"AVENIDA 31_CALLE 62",,-34.945553,-57.964407,,,,,America/Argentina/Buenos_Aires,
205608,,"3402 VEDIA",,-34.544054,-58.485743,,,,,America/Argentina/Buenos_Aires,
6427130575,,"RECUERO 3801-3899",,-34.738561,-58.615545,,,,,America/Argentina/Buenos_Aires,
207835,,"1922 VIAMONTE",,-34.600899,-58.394582,,,,,America/Argentina/Buenos_Aires,
20495,,"424 SAENZ PE?A LUIS PRES.",,-34.613834,-58.387506,,,,,America/Argentina/Buenos_Aires,
203692,,"700 URQUIZA GRAL.",,-34.61869,-58.409328,,,,,America/Argentina/Buenos_Aires,
635132770,,"AVENIDA BARTOLOMÉ MITRE 4841",,-34.694034,-58.330501,,,,,America/Argentina/Buenos_Aires,
6427119093,,"BRIGADIER GENERAL JUAN MANUEL DE ROSAS 19500-19576",,-34.807802,-58.634278,,,,,America/Argentina/Buenos_Aires,
698111080,,"CALLE 7_CALLE 158",,-34.875929,-57.893804,,,,,America/Argentina/Buenos_Aires,
6749104573,,"RUTA NACIONAL 197 2760-2798",,-34.443806,-58.578786,,,,,America/Argentina/Buenos_Aires,
201306,,"4712 NOGOYA",,-34.61397,-58.510579,,,,,America/Argentina/Buenos_Aires,
6861106499,,"AVENIDA MAIPÚ 2171-2199",,-34.516172,-58.487949,,,,,America/Argentina/Buenos_Aires,
201645,,"9445 PAZ GRAL. AV.",,-34.627694,-58.530562,,,,,America/Argentina/Buenos_Aires,
6658122954,,"AVENIDA SAN MARTÍN 447",,-34.758928,-58.297809,,,,,America/Argentina/Buenos_Aires,
6434112189,,"CORONEL MURATURE 4002-4050",,-34.698979,-58.432171,,,,,America/Argentina/Buenos_Aires,
6490122070,,"VIRGILIO 1804",,-34.74757,-58.450758,,,,,America/Argentina/Buenos_Aires,
6490106241,,"ALSINA 1-99",,-34.737208,-58.391934,,,,,America/Argentina/Buenos_Aires,
6490129855,,"INDALECIO GÓMEZ 731-799",,-34.780553,-58.383409,,,,,America/Argentina/Buenos_Aires,
6756119813,,"JOSÉ MARÍA VERDUGA 622",,-34.507611,-58.55693,,,,,America/Argentina/Buenos_Aires,
6490121422,,"AV. GRAL. MARTÍN RODRÍGUEZ 1887",,-34.738055,-58.438457,,,,,America/Argentina/Buenos_Aires,
6658130068,,"LA GUARDA 1400-1468",,-34.741104,-58.224069,,,,,America/Argentina/Buenos_Aires,
628134822,,"EUGENIO DE BURZACO 484",,-34.826402,-58.395834,,,,,America/Argentina/Buenos_Aires,
6427127047,,"AVENIDA EVA PERÓN 885",,-34.652724,-58.534384,,,,,America/Argentina/Buenos_Aires,
635115274,,"CANGALLO 4162-4200",,-34.703871,-58.353535,,,,,America/Argentina/Buenos_Aires,
6410129839,,"INTENDENTE PÉREZ QUINTANA 755-799",,-34.658297,-58.681317,,,,,America/Argentina/Buenos_Aires,
6840131363,,"RODRÍGUEZ PEÑA 1330",,-34.597393,-58.542066,,,,,America/Argentina/Buenos_Aires,
6408106551,,"CRUCERO GENERAL BELGRANO 900-924",,-34.588474,-58.629287,,,,,America/Argentina/Buenos_Aires,
6756119656,,"AVENIDA SUCRE 2351-2399",,-34.476012,-58.555466,,,,,America/Argentina/Buenos_Aires,
6840119207,,"AVENIDA HUGO DE CARRIL 9520",,-34.568921,-58.61163,,,,,America/Argentina/Buenos_Aires,
6568101384,,"SALVADOR CURUTCHET 2900-2948",,-34.634011,-58.646464,,,,,America/Argentina/Buenos_Aires,
202722,,"2235 RIVADAVIA AV.",,-34.609641,-58.398157,,,,,America/Argentina/Buenos_Aires,
6756108171,,"ENTRE RÍOS 2239-2299",,-34.494998,-58.529523,,,,,America/Argentina/Buenos_Aires,
628130846,,"DOMINGO SALABERRY 800-898",,-34.79683,-58.334017,,,,,America/Argentina/Buenos_Aires,
6539134057,,"FRENCH 999-1099",,-34.681369,-58.699587,,,,,America/Argentina/Buenos_Aires,
6408100746,,"ERNESTO PLASS 4399-4499",,-34.625487,-58.642923,,,,,America/Argentina/Buenos_Aires,
205162,,"2032 VERTIZ VIRREY AV.",,-34.558886,-58.449819,,,,,America/Argentina/Buenos_Aires,
628104918,,"AVENIDA SAN MARTÍN 4099-4129",,-34.785885,-58.346637,,,,,America/Argentina/Buenos_Aires,
6434114142,,"AVENIDA GENERAL JOSÉ DE SAN MARTÍN 80",,-34.705488,-58.416591,,,,,America/Argentina/Buenos_Aires,
6441124091,,"AVENIDA 44_CALLE 2",,-34.906242,-57.950298,,,,,America/Argentina/Buenos_Aires,
6441104991,,"AVENIDA 72_CALLE 21",,-34.944599,-57.941899,,,,,America/Argentina/Buenos_Aires,
6434134698,,"DEHEZA 701-799",,-34.708895,-58.36538,,,,,America/Argentina/Buenos_Aires,
6490131526,,"VICENTE OLIDEN 1609-1699",,-34.77541,-58.423592,,,,,America/Argentina/Buenos_Aires,
202037,,"5025 GAONA AV.",,-34.628788,-58.492718,,,,,America/Argentina/Buenos_Aires,
6658120802,,"ANDRÉS BARANDA 440",,-34.720531,-58.27282,,,,,America/Argentina/Buenos_Aires,
6760107020,,"MANUEL BELGRANO 1-99",,-34.53336,-58.701457,,,,,America/Argentina/Buenos_Aires,
628106870,,"RUTA PROVINCIAL 210 1088",,-34.80365,-58.388729,,,,,America/Argentina/Buenos_Aires,
6568112930,,"AVENIDA RIVADAVIA 15536",,-34.643957,-58.585453,,,,,America/Argentina/Buenos_Aires,
201272,,"3875 LASTRA AV.",,-34.607521,-58.521392,,,,,America/Argentina/Buenos_Aires,
6490134344,,"CERRITO 1702-1800",,-34.759306,-58.382657,,,,,America/Argentina/Buenos_Aires,
6412112228,,"AVENIDA PRESIDENTE JUAN DOMINGO PERÓN Y AV. JOSE ALTUBE",,-34.517874,-58.745273,,,,,America/Argentina/Buenos_Aires,
6427110209,,"AVENIDA DOCTOR IGNACIO ARIETA 4400-4498",,-34.689159,-58.546494,,,,,America/Argentina/Buenos_Aires,
6756119143,,"COLECTORA OESTE ACCESO NORTE",,-34.489164,-58.583072,,,,,America/Argentina/Buenos_Aires,
6756106310,,"AVENIDA SANTA FE 701-799",,-34.479439,-58.507698,,,,,America/Argentina/Buenos_Aires,
6658124558,,"AVENIDA OSCAR SMITH 2289",,-34.757284,-58.268327,,,,,America/Argentina/Buenos_Aires,
6274101564,,"AVENIDA GENERAL JOSÉ DE SAN MARTÍN 600-798",,-34.781858,-58.279103,,,,,America/Argentina/Buenos_Aires,
6539106722,,"AVENIDA DEL LIBERTADOR 671",,-34.666882,-58.726808,,,,,America/Argentina/Buenos_Aires,
6658129687,,"PADRE BRUZONE 1100-1198",,-34.741842,-58.228061,,,,,America/Argentina/Buenos_Aires,
6427107755,,"SPIRO 3202-3300",,-34.751995,-58.584682,,,,,America/Argentina/Buenos_Aires,
6658128733,,"VICENTE FRANCO 2500-2536",,-34.779573,-58.313762,,,,,America/Argentina/Buenos_Aires,
628102025,,"JOAQUÍN V. GONZÁLEZ 2200-2210",,-34.815809,-58.371769,,,,,America/Argentina/Buenos_Aires,
6490121417,,"FEDERICO NIETZCHE 302-400",,-34.742543,-58.357202,,,,,America/Argentina/Buenos_Aires,
6515129595,,"DESCARTES 3249-3299",,-34.465035,-58.726142,,,,,America/Argentina/Buenos_Aires,
628122867,,"FALUCHO 5500-5598",,-34.78636,-58.328406,,,,,America/Argentina/Buenos_Aires,
6658117333,,"TRIUNVIRATO 1071",,-34.73906,-58.264343,,,,,America/Argentina/Buenos_Aires,
6441113121,,"CALLE 12_CALLE 64",,-34.929151,-57.94209,,,,,America/Argentina/Buenos_Aires,
6441127390,,"AVENIDA 51_HOSP ITALIANO",,-34.936807,-57.972558,,,,,America/Argentina/Buenos_Aires,
201668,,"7691 PAZ GRAL. AV.",,-34.605866,-58.52665,,,,,America/Argentina/Buenos_Aires,
204238,,"1522 RAMOS MEJIA JOSE MARIA DR. AV.",,-34.589872,-58.372907,,,,,America/Argentina/Buenos_Aires,
6805108041,,"CALLAO 1027",,-34.41305,-58.600372,,,,,America/Argentina/Buenos_Aires,
6274126363,,"DIAGONAL GENERAL MARTÍN MIGUEL DE GÜEMES 138",,-34.795548,-58.277674,,,,,America/Argentina/Buenos_Aires,
6490124173,,"PICHINCHA 1113-1121",,-34.783639,-58.406593,,,,,America/Argentina/Buenos_Aires,
6497101417,,"RUTA NACIONAL 5 Y CABECITA NEGRA",,-34.595551,-59.139906,,,,,America/Argentina/Buenos_Aires,
6539101155,,"AVENIDA DOCTOR RICARDO BALBÍN Y SUPERI",,-34.724384,-58.792474,,,,,America/Argentina/Buenos_Aires,
6805104010,,"AVENIDA JUAN DOMINGO PERÓN 991",,-34.453611,-58.646551,,,,,America/Argentina/Buenos_Aires,
6434109776,,"ALVAR NÚÑEZ 4902-4950",,-34.741574,-58.35902,,,,,America/Argentina/Buenos_Aires,
206795,,"2743 JANER ANA MARIA",,-34.654402,-58.443411,,,,,America/Argentina/Buenos_Aires,
6441125333,,"CAMINO GENERAL BELGRANO_CALLE 405",,-34.862783,-58.113206,,,,,America/Argentina/Buenos_Aires,
2033068,,"10839 RIVADAVIA AV.",,-34.639155,-58.516795,,,,,America/Argentina/Buenos_Aires,
6756134360,,"ANTONIO SÁENZ 2161-2199",,-34.510027,-58.567443,,,,,America/Argentina/Buenos_Aires,
6412105931,,"AVENIDA PRESIDENTE HIPÓLITO YRIGOYEN 3719-3999",,-34.527931,-58.773291,,,,,America/Argentina/Buenos_Aires,
6260118306,,"BOULEVARD BUENOS AIRES 1720",,-34.808003,-58.444509,,,,,America/Argentina/Buenos_Aires,
6371109005,,"ARTIGAS 5452-5500",,-34.547975,-58.564105,,,,,America/Argentina/Buenos_Aires,
6805126215,,"CNEL. VILELA 2099-2249",,-34.450874,-58.677729,,,,,America/Argentina/Buenos_Aires,
6760102020,,"AVENIDA PRESIDENTE JUAN DOMINGO PERÓN Y CNEL. CHARLONE",,-34.543959,-58.709648,,,,,America/Argentina/Buenos_Aires,
6427111338,,"AUTOPISTA TENIENTE GENERAL PABLO RICCHIERI",,-34.70538,-58.499873,,,,,America/Argentina/Buenos_Aires,
6539120901,,"CENTENARIO 1649-1699",,-34.674177,-58.695542,,,,,America/Argentina/Buenos_Aires,
6568127514,,"COLECTORA SUR ACCESO OESTE 4678",,-34.633307,-58.628087,,,,,America/Argentina/Buenos_Aires,
6861104748,,"GENERAL SAN MARTÍN 3006",,-34.532891,-58.502011,,,,,America/Argentina/Buenos_Aires,
2031890,,"2200 LARRAYA",,-34.658784,-58.49227,,,,,America/Argentina/Buenos_Aires,
201218,,"871 BILLINGHURST",,-34.599968,-58.415001,,,,,America/Argentina/Buenos_Aires,
6756121596,,"MATHEU 1987",,-34.503623,-58.57196,,,,,America/Argentina/Buenos_Aires,
6441112051,,"AVENIDA 31_CALLE 60",,-34.94326,-57.966251,,,,,America/Argentina/Buenos_Aires,
6568120388,,"CAPITÁN CLAUDIO ROSALES 1900-1986",,-34.630547,-58.589883,,,,,America/Argentina/Buenos_Aires,
6490129440,,"AVENIDA EVA PERÓN 401-499",,-34.777376,-58.391971,,,,,America/Argentina/Buenos_Aires,
6638113473,,"AVENIDA V. CASTRO Y RÍO SEGUNDO",,-34.465048,-58.914241,,,,,America/Argentina/Buenos_Aires,
691102281,,"CAMINO GENERAL BELGRANO 1216",,-34.783949,-58.256815,,,,,America/Argentina/Buenos_Aires,
6840100282,,"GABINO EZEIZA 8299-8399",,-34.573728,-58.598955,,,,,America/Argentina/Buenos_Aires,
6371100630,,"TRIUNVIRATO 3589",,-34.582751,-58.572929,,,,,America/Argentina/Buenos_Aires,
6805102529,,"25 DE MAYO 2273",,-34.467655,-58.659058,,,,,America/Argentina/Buenos_Aires,
6756119711,,"25 DE MAYO 626",,-34.46716,-58.512042,,,,,America/Argentina/Buenos_Aires,
691112632,,"AVENIDA ANTÁRTIDA ARGENTINA 651-695",,-34.802363,-58.220575,,,,,America/Argentina/Buenos_Aires,
6371128221,,"AVENIDA CENTRAL 7902-8000",,-34.525798,-58.577859,,,,,America/Argentina/Buenos_Aires,
6756124719,,"EDISON 3202-3300",,-34.508085,-58.532254,,,,,America/Argentina/Buenos_Aires,
6658115300,,"AVENIDA GOBERNADOR MONTEVERDE 2467",,-34.788458,-58.306852,,,,,America/Argentina/Buenos_Aires,
635125012,,"CORONEL CASACUBERTA 4502-4600",,-34.703951,-58.347769,,,,,America/Argentina/Buenos_Aires,
6408102577,,"AVENIDA GOBERNADOR VERGARA 3899-3939",,-34.595873,-58.635958,,,,,America/Argentina/Buenos_Aires,
6760120661,,"DOMINGO FAUSTINO SARMIENTO 1701-1799",,-34.54153,-58.714873,,,,,America/Argentina/Buenos_Aires,
6490130579,,"SALTA 126",,-34.762632,-58.360449,,,,,America/Argentina/Buenos_Aires,
6658107851,,"AVENIDA SAN MARTÍN 775",,-34.760545,-58.300806,,,,,America/Argentina/Buenos_Aires,
6532102546,,"KM 89 - AGRALE",,-34.651542,-59.328225,,,,,America/Argentina/Buenos_Aires,
6490100607,,"GARCÍA DE RÍO 412",,-34.779691,-58.39531,,,,,America/Argentina/Buenos_Aires,
202700,,"1597 DEL CAMPO AV.",,-34.588009,-58.47012,,,,,America/Argentina/Buenos_Aires,
2031861,,"5212 PAZ GRAL. AV.",,-34.573105,-58.510506,,,,,America/Argentina/Buenos_Aires,
206504,,"2830 CUENCA",,-34.603556,-58.493685,,,,,America/Argentina/Buenos_Aires,
628127935,,"AVENIDA TOMÁS ESPORA 4399-4499",,-34.837498,-58.382718,,,,,America/Argentina/Buenos_Aires,
6658119580,,"AVENIDA LAMADRID 1699-1799",,-34.721992,-58.285698,,,,,America/Argentina/Buenos_Aires,
20447,,"1925 COMBATE DE LOS POZOS",,-34.630959,-58.391491,,,,,America/Argentina/Buenos_Aires,
6840107683,,"AVENUE BENITO PÉREZ GALDÓS 9931",,-34.569577,-58.621206,,,,,America/Argentina/Buenos_Aires,
6756108738,,"INTENDENTE NEYER 402-500",,-34.465062,-58.529845,,,,,America/Argentina/Buenos_Aires,
6274118720,,"CHUBUT 1302-1400",,-34.801876,-58.256286,,,,,America/Argentina/Buenos_Aires,
6568108723,,"AVENIDA BRIGADIER GENERAL JUAN MANUEL DE ROSAS 173",,-34.640098,-58.625181,,,,,America/Argentina/Buenos_Aires,
6252129169,,"BV. PRESIDENTE PERÓN 1315-1399",,-34.419864,-58.737809,,,,,America/Argentina/Buenos_Aires,
203969,,"2520 CARDENAS CNEL. AV.",,-34.665315,-58.503104,,,,,America/Argentina/Buenos_Aires,
635113421,,"AVENIDA MANUEL BELGRANO 1415-1499",,-34.672001,-58.361367,,,,,America/Argentina/Buenos_Aires,
6658119369,,"TRIUNVIRATO 913",,-34.73835,-58.262644,,,,,America/Argentina/Buenos_Aires,
6490122398,,"CAMINO PUENTE DE LA NORIA 1551",,-34.775159,-58.451364,,,,,America/Argentina/Buenos_Aires,
6658108782,,"FLORIDA 749-799",,-34.755582,-58.24289,,,,,America/Argentina/Buenos_Aires,
6252125644,,"RUTA 25 Y LOS TULIPANES-TEMAIKEN",,-34.366284,-58.807223,,,,,America/Argentina/Buenos_Aires,
206186,,"3259 CARRIL SALVADOR MARIA DEL AV.",,-34.593591,-58.502928,,,,,America/Argentina/Buenos_Aires,
6252111172,,"AVENIDA CONSTITUCIÓN Y ESMERALDA.",,-34.395133,-58.766139,,,,,America/Argentina/Buenos_Aires,
691115004,,"AVENIDA RIGOLLEAU 3152-3200",,-34.770633,-58.226051,,,,,America/Argentina/Buenos_Aires,
6568116394,,"AVENIDA CALLAO 1434-1444",,-34.693204,-58.637762,,,,,America/Argentina/Buenos_Aires,
6441102422,,"AVENIDA 60_CALLE 149",,-34.960531,-57.985074,,,,,America/Argentina/Buenos_Aires,
6760112293,,"ISABEL LA CATÓLICA 201-299",,-34.585917,-58.731446,,,,,America/Argentina/Buenos_Aires,
202322,,"2485 CARRIL SALVADOR MARIA DEL AV.",,-34.587743,-58.493461,,,,,America/Argentina/Buenos_Aires,
6427111168,,"TRIUNVIRATO 1906",,-34.656048,-58.579744,,,,,America/Argentina/Buenos_Aires,
6760104685,,"AVENIDA PRESIDENTE JUAN DOMINGO PERÓN Y PZA SAN MIGUEL",,-34.542586,-58.711532,,,,,America/Argentina/Buenos_Aires,
628113550,,"GUATAMBU 249-299",,-34.819331,-58.42505,,,,,America/Argentina/Buenos_Aires,
6434124546,,"CORONEL PRINGLES 2259",,-34.710703,-58.373588,,,,,America/Argentina/Buenos_Aires,
6434131763,,"MANUEL CASTRO 5190",,-34.688211,-58.431522,,,,,America/Argentina/Buenos_Aires,
635106008,,"AVENIDA BARTOLOMÉ MITRE 692",,-34.662043,-58.365463,,,,,America/Argentina/Buenos_Aires,
6427127768,,"TOMÁS A. EDISON 2899-3099",,-34.711979,-58.600409,,,,,America/Argentina/Buenos_Aires,
698105024,,"AVENIDA 60_CALLE 123",,-34.90635,-57.926112,,,,,America/Argentina/Buenos_Aires,
6805116835,,"CHILAVERT 999-1077",,-34.411244,-58.713128,,,,,America/Argentina/Buenos_Aires,
6749102515,,"AVENIDA NICOLÁS AVELLANEDA 2606",,-34.454981,-58.560701,,,,,America/Argentina/Buenos_Aires,
628102309,,"FIGUEROA 1-199",,-34.818832,-58.354811,,,,,America/Argentina/Buenos_Aires,
6658134376,,"PRIMERA JUNTA 854",,-34.72607,-58.237743,,,,,America/Argentina/Buenos_Aires,
6408127661,,"ALEJANDRO MALASPINA 1000-1098",,-34.604623,-58.641192,,,,,America/Argentina/Buenos_Aires,
6434106586,,"GOBERNADOR CARLOS TEJEDOR 1157",,-34.701722,-58.408611,,,,,America/Argentina/Buenos_Aires,
6658113187,,"AVENIDA HIPÓLITO YRIGOYEN 299-323",,-34.718807,-58.263666,,,,,America/Argentina/Buenos_Aires,
6490101568,,"AVENIDA BRIGADIER GENERAL JUAN MANUEL DE ROSAS 2275-2381",,-34.739223,-58.488614,,,,,America/Argentina/Buenos_Aires,
6490106120,,"PLUMERILLO 1701-1799",,-34.711538,-58.437003,,,,,America/Argentina/Buenos_Aires,
6490114473,,"PRESIDENTE JUAN DOMINGO PERÓN 4315",,-34.718638,-58.448047,,,,,America/Argentina/Buenos_Aires,
6515126406,,"AVENIDA DEL SESQUICENTENARIO 4802-4814",,-34.48134,-58.678571,,,,,America/Argentina/Buenos_Aires,
6490124687,,"FEDERICO CHAMPALANNE 2401-2499",,-34.753852,-58.441467,,,,,America/Argentina/Buenos_Aires,
6756102337,,"AVENIDA SANTA FE 2139",,-34.490608,-58.499912,,,,,America/Argentina/Buenos_Aires,
628113081,,"PEDRO ECHAGÜE 486",,-34.817856,-58.416465,,,,,America/Argentina/Buenos_Aires,
20472,,"2881 LARRALDE CRISOLOGO AV.",,-34.551347,-58.472506,,,,,America/Argentina/Buenos_Aires,
6427116598,,"TINOGASTA 6199-6299",,-34.758033,-58.626331,,,,,America/Argentina/Buenos_Aires,
6490115202,,"VICENTE OLIDEN 2050-2098",,-34.777881,-58.428718,,,,,America/Argentina/Buenos_Aires,
6568127507,,"SALVADOR CURUTCHET 2700-2798",,-34.634224,-58.644004,,,,,America/Argentina/Buenos_Aires,
6408111619,,"ESTEBAN BONORINO 999-1099",,-34.626357,-58.641287,,,,,America/Argentina/Buenos_Aires,
6427126917,,"PRESIDENTE DOCTOR ARTURO U. ILLIA 3333-3383",,-34.681314,-58.570284,,,,,America/Argentina/Buenos_Aires,
6427132001,,"AVENIDA BOULOGNE SUR MER 1155",,-34.696335,-58.509093,,,,,America/Argentina/Buenos_Aires,
635115404,,"CABILDO 501-549",,-34.677009,-58.391111,,,,,America/Argentina/Buenos_Aires,
628115244,,"SANTA ANA 1980",,-34.771486,-58.337231,,,,,America/Argentina/Buenos_Aires,
6497101233,,"RUTA PROVINCIAL 7 Y AVENIDA MARÍA UNZUÉ DE ALVEAR",,-34.58412,-59.057245,,,,,America/Argentina/Buenos_Aires,
635109551,,"AVENIDA GENERAL GÜEMES 806",,-34.675387,-58.364523,,,,,America/Argentina/Buenos_Aires,
6410108661,,"INTENDENTE CARLOS RATTI 4455-4499",,-34.629728,-58.710884,,,,,America/Argentina/Buenos_Aires,
2032028,,"3391 PORTELA",,-34.66416,-58.440531,,,,,America/Argentina/Buenos_Aires,
6441113922,,"DIAGONAL 80_CALLE 47",,-34.910714,-57.948843,,,,,America/Argentina/Buenos_Aires,
6840120722,,"AVIADOR TENIENTE BENJAMÍN MATIENZO 2400-2492",,-34.595731,-58.593822,,,,,America/Argentina/Buenos_Aires,
6408121416,,"CALLE TIGRE 91",,-34.624495,-58.643154,,,,,America/Argentina/Buenos_Aires,
6260123372,,"CAMINO DE CINTURA 5226",,-34.760699,-58.480982,,,,,America/Argentina/Buenos_Aires,
6427128554,,"NECOCHEA 4812",,-34.683565,-58.52607,,,,,America/Argentina/Buenos_Aires,
6274117671,,"BOMBERO VOLUNTARIO V. SENZABELLO 1800",,-34.789721,-58.261737,,,,,America/Argentina/Buenos_Aires,
6658124184,,"EVA PERÓN 1450-1498",,-34.751653,-58.326903,,,,,America/Argentina/Buenos_Aires,
6568114806,,"AVENIDA EVA PERÓN 3271",,-34.685188,-58.636032,,,,,America/Argentina/Buenos_Aires,
691100889,,"AVENIDA RIGOLLEAU 3308",,-34.76992,-58.224725,,,,,America/Argentina/Buenos_Aires,
6568125414,,"AVENIDA DON BOSCO 4183",,-34.675609,-58.61092,,,,,America/Argentina/Buenos_Aires,
628114236,,"DR. MANUEL QUINTANA 400-498",,-34.82547,-58.396781,,,,,America/Argentina/Buenos_Aires,
691120028,,"AVENIDA MITRE 4500-4598",,-34.781902,-58.170297,,,,,America/Argentina/Buenos_Aires,
6490126461,,"CALLE MOLINA ARROTEA 1802-1850",,-34.765835,-58.424644,,,,,America/Argentina/Buenos_Aires,
6427127769,,"CORONEL BRANDSEN 5271",,-34.684154,-58.534062,,,,,America/Argentina/Buenos_Aires,
6434131318,,"GENERAL MADARIAGA 402-450",,-34.702795,-58.366266,,,,,America/Argentina/Buenos_Aires,
6515114356,,"CURA BROCHERO Y SANTIAGO DE CHILE",,-34.470486,-58.752846,,,,,America/Argentina/Buenos_Aires,
6408125425,,"GRANADA 550-598",,-34.614623,-58.642886,,,,,America/Argentina/Buenos_Aires,
6371100491,,"4 DE FEBRERO 3550-3560",,-34.547171,-58.531484,,,,,America/Argentina/Buenos_Aires,
6408118342,,"POETA ROMILDO RISSO 3049-3099",,-34.589636,-58.663352,,,,,America/Argentina/Buenos_Aires,
6441110768,,"CAMINO GENERAL BELGRANO_CALLE 525",,-34.8986,-57.981133,,,,,America/Argentina/Buenos_Aires,
206041,,"33 CARRERAS SANTIAGO DE LAS",,-34.636115,-58.489321,,,,,America/Argentina/Buenos_Aires,
6490100697,,"AVENIDA GENERAL MARTÍN RODRÍGUEZ 1302-1400",,-34.735029,-58.432892,,,,,America/Argentina/Buenos_Aires,
6568124201,,"LOS CRIOLLOS 1099-1149",,-34.684025,-58.633929,,,,,America/Argentina/Buenos_Aires,
6427135034,,"AVENIDA 17 DE OCTUBRE",,-34.721563,-58.56587,,,,,America/Argentina/Buenos_Aires,
6760127594,,"AVENIDA SENADOR MORÓN 1502-1600",,-34.56705,-58.686192,,,,,America/Argentina/Buenos_Aires,
6427112034,,"AVENIDA PRESIDENTE DOCTOR ARTURO U. ILLIA 2889",,-34.678495,-58.567105,,,,,America/Argentina/Buenos_Aires,
202236,,"3444 MITRE BARTOLOME",,-34.609396,-58.415199,,,,,America/Argentina/Buenos_Aires,
628105546,,"AVENIDA EVA PERÓN 2450-2554",,-34.810464,-58.335115,,,,,America/Argentina/Buenos_Aires,
6805109639,,"AVENIDA MARCELO T. DE ALVEAR 1173",,-34.49609,-58.635046,,,,,America/Argentina/Buenos_Aires,
6658107770,,"AVENIDA TENIENTE GENERAL DONATO ÁLVAREZ 1875-1899",,-34.762216,-58.330877,,,,,America/Argentina/Buenos_Aires,
6434115081,,"AVENIDA GENERAL JOSÉ DE SAN MARTÍN 1810",,-34.691723,-58.403946,,,,,America/Argentina/Buenos_Aires,
6371116921,,"AVENIDA EVA PERÓN 3302-3392",,-34.577822,-58.563228,,,,,America/Argentina/Buenos_Aires,
6490121563,,"VICENTE OLIDEN 1025-1099",,-34.771801,-58.416899,,,,,America/Argentina/Buenos_Aires,
6427100434,,"ARGENTINA 5626",,-34.68867,-58.532246,,,,,America/Argentina/Buenos_Aires,
6568130595,,"PRESIDENTE ALESSANDRI 1000-1048",,-34.672002,-58.62169,,,,,America/Argentina/Buenos_Aires,
2031937,,"1057 ALVAREZ THOMAS AV.",,-34.578732,-58.456624,,,,,America/Argentina/Buenos_Aires,
6427134871,,"VIA MARIANO SANTAMARIA 1932",,-34.671477,-58.576573,,,,,America/Argentina/Buenos_Aires,
6805133102,,"YAGAN YAGAN 200-298",,-34.408532,-58.593291,,,,,America/Argentina/Buenos_Aires,
6568122276,,"BLAS PARERA 2002-2100",,-34.681167,-58.666196,,,,,America/Argentina/Buenos_Aires,
6371104300,,"BELGRANO 4230",,-34.580613,-58.540743,,,,,America/Argentina/Buenos_Aires,
6245116689,,"CAMINO COSTANERO ALMIRANTE BROWN_CAMPING",,-34.832848,-57.950808,,,,,America/Argentina/Buenos_Aires,
6427116284,,"AVENIDA CRISTIANÍA 7199-7249",,-34.729072,-58.559408,,,,,America/Argentina/Buenos_Aires,
6274108405,,"AVENIDA CALCHAQUÍ 5699-5737",,-34.825622,-58.224785,,,,,America/Argentina/Buenos_Aires,
6840115580,,"PAYADOR M. CASTRO 191",,-34.642179,-58.545596,,,,,America/Argentina/Buenos_Aires,
6371120219,,"AVENIDA BRIGADIER GENERAL JUAN MANUEL DE ROSAS 3802-3880",,-34.54267,-58.580182,,,,,America/Argentina/Buenos_Aires,
6568105801,,"AVENIDA CALLAO 2449",,-34.697364,-58.649906,,,,,America/Argentina/Buenos_Aires,
6434102778,,"GENERAL OLAZÁBAL 4521-4549",,-34.695872,-58.432175,,,,,America/Argentina/Buenos_Aires,
6427120193,,"ÁNGEL HUBAC 5",,-34.696033,-58.633378,,,,,America/Argentina/Buenos_Aires,
6434103665,,"TENIENTE CORONEL J. OBON 2102-2200",,-34.67402,-58.427821,,,,,America/Argentina/Buenos_Aires,
6756103534,,"AVENIDA INTENDENTE MAURICIO SCATAMACCHIA 177",,-34.490646,-58.58214,,,,,America/Argentina/Buenos_Aires,
207917,,"473 CAMPOS LUIS M. AV.",,-34.572218,-58.433861,,,,,America/Argentina/Buenos_Aires,
6861108743,,"CASEROS 1506",,-34.52566,-58.487768,,,,,America/Argentina/Buenos_Aires,
203744,,"4361 PERON EVA AV.",,-34.653342,-58.473818,,,,,America/Argentina/Buenos_Aires,
6427130674,,"CHICLANA 800-898",,-34.684834,-58.528209,,,,,America/Argentina/Buenos_Aires,
206564,,"11577 RIVADAVIA AV.",,-34.639198,-58.527378,,,,,America/Argentina/Buenos_Aires,
6427121932,,"SOLDADO SOSA 4101-4199",,-34.725497,-58.596553,,,,,America/Argentina/Buenos_Aires,
6441131064,,"CAMINO GENERAL BELGRANO_CALLE 411",,-34.865754,-58.106068,,,,,America/Argentina/Buenos_Aires,
628112319,,"AVENIDA SAN MARTÍN 3844",,-34.788229,-58.350883,,,,,America/Argentina/Buenos_Aires,
6515102918,,"CAPITÁN GIACHINO 1-49",,-34.482529,-58.681119,,,,,America/Argentina/Buenos_Aires,
6408106188,,"TENIENTE GENERAL JULIO A. ROCA 1500-1580",,-34.586052,-58.632076,,,,,America/Argentina/Buenos_Aires,
206194,,"1295 CONSTITUCION",,-34.624697,-58.384227,,,,,America/Argentina/Buenos_Aires,
202163,,"1914 ALVAREZ JULIAN",,-34.589935,-58.42003,,,,,America/Argentina/Buenos_Aires,
6412113681,,"AVENIDA DERQUI 2799-3047",,-34.55537,-58.777678,,,,,America/Argentina/Buenos_Aires,
20606,,"1369 DE MAYO AV.",,-34.609348,-58.38578,,,,,America/Argentina/Buenos_Aires,
6749107305,,"AVENIDA NICOLÁS AVELLANEDA 4377",,-34.464176,-58.580063,,,,,America/Argentina/Buenos_Aires,
6274123043,,"MONTEVIDEO 2354",,-34.819165,-58.27196,,,,,America/Argentina/Buenos_Aires,
6568115243,,"SALVADOR CURUTCHET 2800-2846",,-34.634129,-58.645148,,,,,America/Argentina/Buenos_Aires,
206193,,"179 SOLIS",,-34.61109,-58.390386,,,,,America/Argentina/Buenos_Aires,
6658119387,,"AVENIDA OSCAR SMITH 1496",,-34.749728,-58.256817,,,,,America/Argentina/Buenos_Aires,
6805113266,,"RUTA NACIONAL 197",,-34.452818,-58.615589,,,,,America/Argentina/Buenos_Aires,
6525104641,,"AVENIDA DOCTOR MARCOS PAZ Y GREGORIO CARMAN",,-34.765682,-58.82332,,,,,America/Argentina/Buenos_Aires,
6274127152,,"RUTA PROVINCIAL 53",,-34.907087,-58.270753,,,,,America/Argentina/Buenos_Aires,
6434115306,,"EVA PERÓN 2602-2700",,-34.715151,-58.371395,,,,,America/Argentina/Buenos_Aires,
6756127907,,"AVENIDA SUCRE 1279-1291",,-34.486866,-58.556573,,,,,America/Argentina/Buenos_Aires,
6441105365,,"CALLE 489_CALLE 23",,-34.886633,-58.033144,,,,,America/Argentina/Buenos_Aires,
206365,,"1397 MARTINEZ VICTOR",,-34.63616,-58.440087,,,,,America/Argentina/Buenos_Aires,
6434101000,,"CENTENARIO URUGUAYO 2302-2400",,-34.727689,-58.368764,,,,,America/Argentina/Buenos_Aires,
628110352,,"RAWSON 749-789",,-34.791117,-58.325399,,,,,America/Argentina/Buenos_Aires,
6427103516,,"PERÚ 1600-1748",,-34.673434,-58.553336,,,,,America/Argentina/Buenos_Aires,
6840123168,,"AVENIDA DÍAZ VÉLEZ",,-34.630002,-58.561472,,,,,America/Argentina/Buenos_Aires,
206167,,"304 SALTA",,-34.612143,-58.383291,,,,,America/Argentina/Buenos_Aires,
6410106623,,"HAITÍ 1999-2099",,-34.655274,-58.700252,,,,,America/Argentina/Buenos_Aires,
6560120192,,"AVENIDA DEL LIBERTADOR 5499-5599",,-34.602845,-58.762185,,,,,America/Argentina/Buenos_Aires,
6274121394,,"CALLE 170 1550",,-34.799591,-58.257115,,,,,America/Argentina/Buenos_Aires,
6371121600,,"AVENIDA PRESIDENTE JUAN DOMINGO PERÓN 6102-6154",,-34.588719,-58.562891,,,,,America/Argentina/Buenos_Aires,
206739,,"206 MONTIEL",,-34.641762,-58.526262,,,,,America/Argentina/Buenos_Aires,
6840127728,,"DE LOS PLATANOS 2600-2698",,-34.59876,-58.595644,,,,,America/Argentina/Buenos_Aires,
635123810,,"AVENIDA MANUEL BELGRANO 3810-3872",,-34.689085,-58.341047,,,,,America/Argentina/Buenos_Aires,
6539131374,,"PEDRO CHUTRO 699-799",,-34.695325,-58.662746,,,,,America/Argentina/Buenos_Aires,
6274108749,,"AVENIDA EVA PERÓN",,-34.847614,-58.278458,,,,,America/Argentina/Buenos_Aires,
6490107209,,"AVENIDA ALMIRANTE BROWN 2802-2900",,-34.770566,-58.396143,,,,,America/Argentina/Buenos_Aires,
6434102311,,"GOBERNADOR GENERAL JUAN JOSÉ VIAMONTE 3702",,-34.675138,-58.425494,,,,,America/Argentina/Buenos_Aires,
628127049,,"AVENIDA SAN MARTÍN 4900-4998",,-34.781279,-58.338296,,,,,America/Argentina/Buenos_Aires,
6245120029,,"AVENIDA BOSSINGA_ECUADOR",,-34.85931,-57.914108,,,,,America/Argentina/Buenos_Aires,
6760122711,,"INTENDENTE JUAN IRIGOIN 4001-4099",,-34.558251,-58.744011,,,,,America/Argentina/Buenos_Aires,
635132674,,"OLAVARRÍA 485",,-34.662152,-58.352332,,,,,America/Argentina/Buenos_Aires,
628106975,,"SANTA ANA 507",,-34.76018,-58.345975,,,,,America/Argentina/Buenos_Aires,
6805118472,,"AVENIDA HIPÓLITO YRIGOYEN 499-599",,-34.458238,-58.630409,,,,,America/Argentina/Buenos_Aires,
6126101179,,"COLECTORA SUR Y AV. BELLOMO BUENOS AIRES",,-34.196483,-58.940518,,,,,America/Argentina/Buenos_Aires,
635130983,,"BOULEVARD DE LOS ITALIANOS 792",,-34.704248,-58.335055,,,,,America/Argentina/Buenos_Aires,
202982,,"1712 DIRECTORIO AV.",,-34.630694,-58.451835,,,,,America/Argentina/Buenos_Aires,
6441114508,,"AVENIDA 120_CALLE 526",,-34.884102,-57.963612,,,,,America/Argentina/Buenos_Aires,
6756101409,,"AVENIDA SANTA FE 955",,-34.481419,-58.506117,,,,,America/Argentina/Buenos_Aires,
6427111041,,"AVENIDA GENERAL RIVAS 3299-3399",,-34.764225,-58.6563,,,,,America/Argentina/Buenos_Aires,
6728131160,,"RUTA NACIONAL 7 Y CALLE 51",,-34.457296,-59.430966,,,,,America/Argentina/Buenos_Aires,
2031180,,"2702 LUJAN",,-34.656635,-58.383431,,,,,America/Argentina/Buenos_Aires,
6434101200,,"CURUPAYTI 4327-4365",,-34.662553,-58.417797,,,,,America/Argentina/Buenos_Aires,
635132301,,"LEANDRO N. ALEM 2103",,-34.659083,-58.346788,,,,,America/Argentina/Buenos_Aires,
202907,,"2662 MITRE BARTOLOME",,-34.608765,-58.404156,,,,,America/Argentina/Buenos_Aires,
628133649,,"VASCO NÚÑEZ DE BALBOA 2000-2098",,-34.784237,-58.333317,,,,,America/Argentina/Buenos_Aires,
6760132469,,"DR. CARLOS DURAND 1002-1200",,-34.597907,-58.72171,,,,,America/Argentina/Buenos_Aires,
6434108712,,"AVENIDA HIPÓLITO YRIGOYEN 2472-2500",,-34.685765,-58.386917,,,,,America/Argentina/Buenos_Aires,
6861109704,,"FRANCISCO NARCISO DE LAPRIDA 1901-1999",,-34.537657,-58.482334,,,,,America/Argentina/Buenos_Aires,
6427100789,,"AVENIDA GENERAL ROJO 2011",,-34.727114,-58.541629,,,,,America/Argentina/Buenos_Aires,
6756114280,,"GENERAL LAMADRID 1216",,-34.508312,-58.545707,,,,,America/Argentina/Buenos_Aires,
6427119516,,"GRAL. NAZAR 1-24",,-34.695106,-58.532536,,,,,America/Argentina/Buenos_Aires,
6434107078,,"GOBERNADOR MANUEL OCAMPO 1281",,-34.691602,-58.403905,,,,,America/Argentina/Buenos_Aires,
6434106940,,"JUAN ATENCIO 1502-1600",,-34.686163,-58.404991,,,,,America/Argentina/Buenos_Aires,
6441127779,,"AVENIDA 60_AVENIDA 1",,-34.915119,-57.935378,,,,,America/Argentina/Buenos_Aires,
6568113877,,"AVENIDA PRESIDENTE JUAN DOMINGO PERÓN 499-599",,-34.638342,-58.57378,,,,,America/Argentina/Buenos_Aires,
6760115633,,"AVENIDA RICARDO BALBÍN 5000-5074",,-34.572965,-58.743611,,,,,America/Argentina/Buenos_Aires,
6749114859,,"AVENIDA SOBREMONTE 1487",,-34.448681,-58.559738,,,,,America/Argentina/Buenos_Aires,
6861125307,,"DOCTOR JONAS SALK 3257",,-34.511299,-58.503519,,,,,America/Argentina/Buenos_Aires,
628108369,,"MIGUEL CANE 999-1099",,-34.886751,-58.364744,,,,,America/Argentina/Buenos_Aires,
6371128656,,"DIAGONAL 101 CÓRDOBA",,-34.562603,-58.58962,,,,,America/Argentina/Buenos_Aires,
6861116478,,"JUAN BAUTISTA ALBERDI 1161",,-34.509165,-58.487719,,,,,America/Argentina/Buenos_Aires,
6658109053,,"AVENIDA CALCHAQUÍ 1999-2099",,-34.746169,-58.287382,,,,,America/Argentina/Buenos_Aires,
6490115288,,"EPECUÉN 336",,-34.729784,-58.467713,,,,,America/Argentina/Buenos_Aires,
6539110199,,"BERTOLE 1550-1598",,-34.650899,-58.710919,,,,,America/Argentina/Buenos_Aires,
6539121313,,"AVENIDA RIVADAVIA 27200-27298",,-34.660602,-58.751175,,,,,America/Argentina/Buenos_Aires,
201133,,"5287 MAGARI?OS CERVANTES A.",,-34.631305,-58.505996,,,,,America/Argentina/Buenos_Aires,
6441105980,,"AVENIDA 66_CALLE 149",,-34.965611,-57.978245,,,,,America/Argentina/Buenos_Aires,
6434121672,,"PRES. TTE. GRAL. JUAN DOMINGO PERÓN 1419",,-34.682802,-58.396208,,,,,America/Argentina/Buenos_Aires,
6568110792,,"AVENIDA EVA PERÓN 1983-1999",,-34.669529,-58.628998,,,,,America/Argentina/Buenos_Aires,
2031686,,"4583 SEGUROLA AV.",,-34.598824,-58.52,,,,,America/Argentina/Buenos_Aires,
204152,,"10776 PAZ GRAL. AV.",,-34.64138,-58.529,,,,,America/Argentina/Buenos_Aires,
6760124409,,"AVENIDA RICARDO BALBÍN 2601-2675",,-34.55343,-58.723766,,,,,America/Argentina/Buenos_Aires,
2032849,,"4185 SUCRE ANTONIO JOSE DE MCAL.",,-34.574026,-58.472394,,,,,America/Argentina/Buenos_Aires,
6427103546,,"PRESIDENTE DOCTOR ARTURO U. ILLIA 3302",,-34.680966,-58.569876,,,,,America/Argentina/Buenos_Aires,
6434134203,,"FRAY JOSÉ G. W. ACHÁVAL 2690",,-34.729561,-58.385313,,,,,America/Argentina/Buenos_Aires,
6882125011,,"AVENIDA GENERAL LAVALLE Y PEDRO MARTINI",,-34.11655,-59.020146,,,,,America/Argentina/Buenos_Aires,
6840112618,,"SANTOS VEGA 7632",,-34.576657,-58.589418,,,,,America/Argentina/Buenos_Aires,
6490130284,,"PRESIDENTE QUINTANA 1901-1999",,-34.741605,-58.37895,,,,,America/Argentina/Buenos_Aires,
6539102424,,"AVENIDA PATRICIOS 6099-6199",,-34.703812,-58.703813,,,,,America/Argentina/Buenos_Aires,
6490117230,,"JOSÉ GARIBALDI 2355-2511",,-34.784136,-58.431162,,,,,America/Argentina/Buenos_Aires,
6408100824,,"EVA PERÓN 3199-3299",,-34.584585,-58.660429,,,,,America/Argentina/Buenos_Aires,
6568118118,,"PRESIDENTE DOMINGO FAUSTINO SARMIENTO 3399-3499",,-34.642953,-58.656203,,,,,America/Argentina/Buenos_Aires,
628113583,,"EL BENTEVEO 799-899",,-34.76344,-58.347448,,,,,America/Argentina/Buenos_Aires,
6539130594,,"HELVECIA 1230-1248",,-34.692594,-58.674804,,,,,America/Argentina/Buenos_Aires,
6760111546,,"TENIENTE GENERAL RICCHIERI 91",,-34.55492,-58.696411,,,,,America/Argentina/Buenos_Aires,
6441109074,,"CAMINO PARQUE CENTENARIO Y C511",,-34.888445,-57.99913,,,,,America/Argentina/Buenos_Aires,
6658100438,,"AVENIDA TENIENTE GENERAL DONATO ÁLVAREZ 1675-1696",,-34.75941,-58.333015,,,,,America/Argentina/Buenos_Aires,
6427107588,,"AVENIDA MONTECARLO 1-99",,-34.840155,-58.651485,,,,,America/Argentina/Buenos_Aires,
635134748,,"AVENIDA LAS FLORES 1710",,-34.690333,-58.301964,,,,,America/Argentina/Buenos_Aires,
628127553,,"AVENIDA HIPÓLITO YRIGOYEN 12700-12798",,-34.802934,-58.406439,,,,,America/Argentina/Buenos_Aires,
6749111800,,"CARLOS CASARES 3629-3699",,-34.464904,-58.568547,,,,,America/Argentina/Buenos_Aires,
6441131494,,"CAMINO PARQUE CENTENARIO_CALLE 514",,-34.890857,-57.9956,,,,,America/Argentina/Buenos_Aires,
6427100590,,"PERIBEBUY 2685",,-34.689303,-58.549154,,,,,America/Argentina/Buenos_Aires,
6490129302,,"SEGISMUNDO FREUD 150-198",,-34.754353,-58.368936,,,,,America/Argentina/Buenos_Aires,
20139,,"1108 SALTA",,-34.621155,-58.382957,,,,,America/Argentina/Buenos_Aires,
6760110220,,"TENIENTE GENERAL RICCHIERI Y CEO POR LA PAZ",,-34.550623,-58.66889,,,,,America/Argentina/Buenos_Aires,
691114146,,"AVENIDA RIGOLLEAU 3003-3099",,-34.771673,-58.228051,,,,,America/Argentina/Buenos_Aires,
6658109376,,"M. A. PASCUAL 2789",,-34.784991,-58.315675,,,,,America/Argentina/Buenos_Aires,
6434125929,,"SÁENZ PEÑA 501",,-34.718435,-58.40243,,,,,America/Argentina/Buenos_Aires,
206214,,"4495 CHARCAS",,-34.582463,-58.424754,,,,,America/Argentina/Buenos_Aires,
203873,,"3569 INDEPENDENCIA AV.",,-34.62093,-58.416037,,,,,America/Argentina/Buenos_Aires,
6434127190,,"ROMA 4201-4299",,-34.741946,-58.371103,,,,,America/Argentina/Buenos_Aires,
6749104173,,"AVENIDA NICOLÁS AVELLANEDA 3757",,-34.461191,-58.573534,,,,,America/Argentina/Buenos_Aires,
628105416,,"FIGUEROA 320",,-34.821031,-58.353154,,,,,America/Argentina/Buenos_Aires,
628122541,,"SALTA 2100-2198",,-34.77961,-58.346925,,,,,America/Argentina/Buenos_Aires,
6274123297,,"AVENIDA GUILLERMO HUDSON 650-698",,-34.815302,-58.254587,,,,,America/Argentina/Buenos_Aires,
628104468,,"2 DE ABRIL 1300-1318",,-34.829744,-58.381911,,,,,America/Argentina/Buenos_Aires,
6638112028,,"AVENIDA SARGENTO CAYETANO BELIERA Y PABLO RICCHIERI.",,-34.450988,-58.875789,,,,,America/Argentina/Buenos_Aires,
628131348,,"RÍO DIAMANTE 700-798",,-34.821733,-58.34807,,,,,America/Argentina/Buenos_Aires,
206979,,"4016 DE LOS INCAS AV.",,-34.577961,-58.468229,,,,,America/Argentina/Buenos_Aires,
6658110100,,"AVENIDA TENIENTE GENERAL DONATO ÁLVAREZ 1454-1496",,-34.756034,-58.33555,,,,,America/Argentina/Buenos_Aires,
6427124931,,"AVENIDA GENERAL SAN MARTÍN 144",,-34.643527,-58.562029,,,,,America/Argentina/Buenos_Aires,
6658116026,,"JOSÉ ANDRÉS LÓPEZ 939",,-34.770177,-58.294887,,,,,America/Argentina/Buenos_Aires,
635131474,,"PUNTO 3MARTINTO CASI RAPOSO",,-34.723952,-58.333473,,,,,America/Argentina/Buenos_Aires,
6539115318,,"MARIO BRAVO 1000-1048",,-34.681739,-58.711906,,,,,America/Argentina/Buenos_Aires,
202801,,"1193 ACHA MARIANO GRAL.",,-34.581685,-58.472088,,,,,America/Argentina/Buenos_Aires,
203015,,"1075 VARELA AV.",,-34.640895,-58.457055,,,,,America/Argentina/Buenos_Aires,
6434102525,,"JEAN JAURES 501-627",,-34.688115,-58.387816,,,,,America/Argentina/Buenos_Aires,
6539111284,,"MOZART Y GREGORIA MATORRAS",,-34.692893,-58.760875,,,,,America/Argentina/Buenos_Aires,
6658128727,,"AVENIDA MITRE 1160",,-34.730074,-58.247271,,,,,America/Argentina/Buenos_Aires,
628123822,,"AV. REPUBLIC ARGENTINA 2189-2193",,-34.805204,-58.365114,,,,,America/Argentina/Buenos_Aires,
6568126508,,"GERONIMO FASSOLA 872",,-34.636116,-58.59187,,,,,America/Argentina/Buenos_Aires,
6490123533,,"PRESIDENTE JUAN DOMINGO PERÓN 3750-3798",,-34.726174,-58.442566,,,,,America/Argentina/Buenos_Aires,
6658110505,,"FELIPE AMOEDO 1799-1899",,-34.740036,-58.275076,,,,,America/Argentina/Buenos_Aires,
691128185,,"CALLE 365 501-599",,-34.786917,-58.203006,,,,,America/Argentina/Buenos_Aires,
6260119533,,"AVENIDA PEDRO SUÁREZ 851-895",,-34.825358,-58.446867,,,,,America/Argentina/Buenos_Aires,
6427109692,,"INTENDENTE FEDERICO PEDRO RUSSO 4657-4699",,-34.75171,-58.617991,,,,,America/Argentina/Buenos_Aires,
6861117414,,"AVENIDA BARTOLOMÉ MITRE 3799",,-34.517503,-58.527042,,,,,America/Argentina/Buenos_Aires,
6490117120,,"CORONEL LYNCH 2702-2788",,-34.741286,-58.35841,,,,,America/Argentina/Buenos_Aires,
6861127281,,"LOPE DE VEGA 5802-5900",,-34.531352,-58.538426,,,,,America/Argentina/Buenos_Aires,
6749109968,,"RUTA NACIONAL 197 2550-2588",,-34.442157,-58.576275,,,,,America/Argentina/Buenos_Aires,
628119463,,"FALUCHO 6100-6198",,-34.782829,-58.321525,,,,,America/Argentina/Buenos_Aires,
6861114775,,"SAN LORENZO 4601-4699",,-34.518423,-58.524827,,,,,America/Argentina/Buenos_Aires,
6805103181,,"AVENIDA BENAVIDEZ 2000-2098",,-34.411594,-58.69809,,,,,America/Argentina/Buenos_Aires,
628119617,,"RUTA PROVINCIAL 210 1602-1666",,-34.862643,-58.388433,,,,,America/Argentina/Buenos_Aires,
6539130822,,"AVENIDA DOCTOR RICARDO BALBÍN Y RAUCH",,-34.728509,-58.795782,,,,,America/Argentina/Buenos_Aires,
691101884,,"AVENIDA RIGOLLEAU 1561-1583",,-34.77923,-58.242133,,,,,America/Argentina/Buenos_Aires,
204305,,"2099 RABANAL FRANCISCO INTENDENTE AV.",,-34.658632,-58.426675,,,,,America/Argentina/Buenos_Aires,
6427107269,,"AVELINO DÍAZ 71",,-34.701133,-58.473065,,,,,America/Argentina/Buenos_Aires,
628132397,,"COLÓN 3399-3499",,-34.793865,-58.354414,,,,,America/Argentina/Buenos_Aires,
6490120278,,"SAN CRISTÓBAL 260",,-34.757332,-58.348054,,,,,America/Argentina/Buenos_Aires,
6434103775,,"REMEDIOS DE ESCALADA DE SAN MARTÍN 3539",,-34.669903,-58.415541,,,,,America/Argentina/Buenos_Aires,
207605,,"3000 GUIRALDES INT.",,-34.54266,-58.436096,,,,,America/Argentina/Buenos_Aires,
6490119233,,"AV. BRIG. GRAL. JUAN MANUEL DE ROSAS 1299-1399",,-34.734808,-58.478383,,,,,America/Argentina/Buenos_Aires,
6427113895,,"BERÓN DE ASTRADA 3799-3899",,-34.675846,-58.544986,,,,,America/Argentina/Buenos_Aires,
6427134399,,"SUDAMERICA 2399-2499",,-34.718569,-58.611607,,,,,America/Argentina/Buenos_Aires,
691118163,,"SAAVEDRA 3499-3599",,-34.756043,-58.231636,,,,,America/Argentina/Buenos_Aires,
6515104715,,"PASCO Y ALFREDO PALACIOS",,-34.49942,-58.731971,,,,,America/Argentina/Buenos_Aires,
206767,,"5081 CA?ADA DE GOMEZ",,-34.687797,-58.471694,,,,,America/Argentina/Buenos_Aires,
6427109164,,"BERMÚDEZ 5405",,-34.684565,-58.60669,,,,,America/Argentina/Buenos_Aires,
691101961,,"AVENIDA MITRE 574",,-34.752539,-58.215304,,,,,America/Argentina/Buenos_Aires,
6568132715,,"CONVENCIÓN 600-698",,-34.647594,-58.584637,,,,,America/Argentina/Buenos_Aires,
205595,,"2844 BAUNESS",,-34.571624,-58.490427,,,,,America/Argentina/Buenos_Aires,
201598,,"1266 GARAY JUAN DE AV.",,-34.626984,-58.383784,,,,,America/Argentina/Buenos_Aires,
6805120999,,"ALMTE BROWN 1999-2099",,-34.45013,-58.598326,,,,,America/Argentina/Buenos_Aires,
6760124460,,"AVENIDA PRESIDENTE ARTURO U. ILLIA 2502-2628",,-34.540684,-58.690496,,,,,America/Argentina/Buenos_Aires,
628108133,,"OLINDA BOZAN 500-548",,-34.83479,-58.375878,,,,,America/Argentina/Buenos_Aires,
6490131767,,"GENERAL EUSTAQUIO FRÍAS 1272",,-34.771746,-58.423612,,,,,America/Argentina/Buenos_Aires,
6441122647,,"DIAGONAL 74_CALLE 4",,-34.904896,-57.955642,,,,,America/Argentina/Buenos_Aires,
635116021,,"AVENIDA CRISÓLOGO LARRALDE 1326-1400",,-34.679638,-58.367062,,,,,America/Argentina/Buenos_Aires,
205381,,"661 CARRILLO RAMON DR.",,-34.641352,-58.380902,,,,,America/Argentina/Buenos_Aires,
6568120583,,"AVENIDA DEL LIBERTADOR 730-798",,-34.65654,-58.63626,,,,,America/Argentina/Buenos_Aires,
635128955,,"AVENIDA BARTOLOMÉ MITRE 1275",,-34.665068,-58.360066,,,,,America/Argentina/Buenos_Aires,
6658122653,,"AVENIDA MOZART 1100-1124",,-34.723121,-58.236763,,,,,America/Argentina/Buenos_Aires,
2021092,,"14604 PAZ GRAL. AV.",,-34.678251,-58.496034,,,,,America/Argentina/Buenos_Aires,
6861107547,,"BLAS PARERA 952",,-34.538501,-58.499837,,,,,America/Argentina/Buenos_Aires,
6539108964,,"COLOMBIA 1290",,-34.7036,-58.679981,,,,,America/Argentina/Buenos_Aires,
6560127092,,"COLECTORA SUR ACCESO OESTE Y R23",,-34.636301,-58.785082,,,,,America/Argentina/Buenos_Aires,
635134418,,"AVENIDA MANUEL BELGRANO 5534",,-34.700126,-58.327152,,,,,America/Argentina/Buenos_Aires,
205543,,"2447 AUSTRALIA AV.",,-34.645679,-58.382299,,,,,America/Argentina/Buenos_Aires,
6434105249,,"CALLE MARCO AVELLANEDA 5722",,-34.683822,-58.438171,,,,,America/Argentina/Buenos_Aires,
6861110221,,"PARANÁ 4402",,-34.512074,-58.529121,,,,,America/Argentina/Buenos_Aires,
6805105594,,"AVENIDA DE LOS CONSTITUYENTES 1100-1108",,-34.453314,-58.649404,,,,,America/Argentina/Buenos_Aires,
628127337,,"ALMIRANTE SEGUÍ 1781",,-34.813087,-58.422115,,,,,America/Argentina/Buenos_Aires,
6490121607,,"PRESIDENTE JUAN DOMINGO PERÓN 2000-2048",,-34.745505,-58.430187,,,,,America/Argentina/Buenos_Aires,
6515128138,,"MARTÍN CORONADO Y VENTURA COLL",,-34.503216,-58.739005,,,,,America/Argentina/Buenos_Aires,
6410123707,,"ORÁN 2350-2398",,-34.636058,-58.682783,,,,,America/Argentina/Buenos_Aires,
6274115216,,"AVENIDA GENERAL JOSÉ DE SAN MARTÍN 1399-1449",,-34.790391,-58.278865,,,,,America/Argentina/Buenos_Aires,
6434129402,,"AVENIDA HIPÓLITO YRIGOYEN 3108",,-34.692534,-58.389559,,,,,America/Argentina/Buenos_Aires,
6434122994,,"AV. 9 DE JULIO 3301-3399",,-34.725102,-58.366268,,,,,America/Argentina/Buenos_Aires,
6371112356,,"INDEPENDENCIA 5700-5898",,-34.543951,-58.56287,,,,,America/Argentina/Buenos_Aires,
6756104021,,"PRIMERA JUNTA 1015",,-34.462471,-58.508708,,,,,America/Argentina/Buenos_Aires,
6427100594,,"METROBUS CARLOS CASARES",,-34.719829,-58.596432,,,,,America/Argentina/Buenos_Aires,
6861130300,,"CAPITÁN CAJARAVILLE 3747",,-34.528358,-58.544704,,,,,America/Argentina/Buenos_Aires,
6760113627,,"LA PLATA Y TTE GRAL RICHIERI",,-34.562681,-58.685521,,,,,America/Argentina/Buenos_Aires,
6441106126,,"CALLE 137_76",,-34.962326,-57.955431,,,,,America/Argentina/Buenos_Aires,
6805133211,,"GUIDO 699-799",,-34.461632,-58.637426,,,,,America/Argentina/Buenos_Aires,
20390,,"222 RODRIGUEZ PE?A",,-34.606413,-58.390759,,,,,America/Argentina/Buenos_Aires,
691125299,,"CAMINO GENERAL BELGRANO 6771-6781",,-34.820183,-58.192677,,,,,America/Argentina/Buenos_Aires,
202152,,"7020 CASTRO EMILIO AV.",,-34.652868,-58.517372,,,,,America/Argentina/Buenos_Aires,
6658117728,,"MONTEVIDEO 549-599",,-34.711192,-58.298705,,,,,America/Argentina/Buenos_Aires,
6434126957,,"CONCEJA H. NOYA 2801-2899",,-34.703417,-58.406401,,,,,America/Argentina/Buenos_Aires,
205823,,"1206 SCALABRINI ORTIZ RAUL AV.",,-34.59363,-58.429079,,,,,America/Argentina/Buenos_Aires,
6490119590,,"LOS PARAÍSOS 202-300",,-34.74634,-58.348132,,,,,America/Argentina/Buenos_Aires,
6490102644,,"GENERAL JUAN FACUNDO QUIROGA 1786-2020",,-34.749278,-58.475042,,,,,America/Argentina/Buenos_Aires,
6539129942,,"FRENCH 1399-1499",,-34.685674,-58.702059,,,,,America/Argentina/Buenos_Aires,
2032735,,"2381 CASEROS AV.",,-34.635303,-58.395689,,,,,America/Argentina/Buenos_Aires,
635134656,,"PUNTO 16 ONSARI E/BRANDSEN Y MITRE",,-34.70479,-58.318223,,,,,America/Argentina/Buenos_Aires,
6756121904,,"AVENIDA CENTENARIO 2324",,-34.458101,-58.531665,,,,,America/Argentina/Buenos_Aires,
6756133617,,"DEÁN FUNES 399",,-34.517535,-58.564669,,,,,America/Argentina/Buenos_Aires,
6805112839,,"AV. JUAN DOMINGO PERÓN 5202-5270",,-34.427547,-58.690778,,,,,America/Argentina/Buenos_Aires,
6408128143,,"JOSÉ GARIBALDI 2393",,-34.580039,-58.647686,,,,,America/Argentina/Buenos_Aires,
6408109013,,"TENIENTE GENERAL JULIO A. ROCA 2500-2548",,-34.575995,-58.644829,,,,,America/Argentina/Buenos_Aires,
6756104609,,"AVENIDA ESTEBAN ECHEVERRÍA 110",,-34.51015,-58.527009,,,,,America/Argentina/Buenos_Aires,
6515120704,,"MARTÍN CORONADO Y JOSE HERNANDEZ",,-34.502133,-58.736952,,,,,America/Argentina/Buenos_Aires,
202652,,"2518 NEUQUEN",,-34.619558,-58.468688,,,,,America/Argentina/Buenos_Aires,
635108179,,"J. M. MONTAÑA 602-674",,-34.643498,-58.350757,,,,,America/Argentina/Buenos_Aires,
6274122071,,"AV. TTE. GRAL. JUAN DOMINGO PERÓN 32",,-34.810845,-58.277248,,,,,America/Argentina/Buenos_Aires,
201510,,"917 GARAY JUAN DE AV.",,-34.625758,-58.378258,,,,,America/Argentina/Buenos_Aires,
6515106618,,"CURA BROCHERO Y OBRIEN",,-34.496667,-58.732257,,,,,America/Argentina/Buenos_Aires,
635119477,,"MATANZA 1383",,-34.708572,-58.34169,,,,,America/Argentina/Buenos_Aires,
6749133319,,"GANDOLFO 1181",,-34.448509,-58.546864,,,,,America/Argentina/Buenos_Aires,
691103906,,"AVENIDA RIGOLLEAU 1277",,-34.780796,-58.24501,,,,,America/Argentina/Buenos_Aires,
208084,,"6503 ARGENTINA AV.",,-34.673188,-58.492829,,,,,America/Argentina/Buenos_Aires,
6805110549,,"AV. LINIERS 1289",,-34.421319,-58.588088,,,,,America/Argentina/Buenos_Aires,
2021024,,"4705 DONADO",,-34.549576,-58.49246,,,,,America/Argentina/Buenos_Aires,
6515123057,,"PROVINCIA DE BUENOS AIRES Y LISANDRO DE LA TORRE.",,-34.479831,-58.772641,,,,,America/Argentina/Buenos_Aires,
6490134734,,"DOCTOR JORGE MELBER 2602-2700",,-34.810656,-58.42965,,,,,America/Argentina/Buenos_Aires,
6490127079,,"JOSÉ EUSEBIO COLOMBRES 1900-1928",,-34.760758,-58.425267,,,,,America/Argentina/Buenos_Aires,
6658114105,,"CORONEL LYNCH 27",,-34.708099,-58.313707,,,,,America/Argentina/Buenos_Aires,
6427128748,,"URIEN 7199-7299",,-34.828682,-58.653045,,,,,America/Argentina/Buenos_Aires,
203277,,"810 RIOBAMBA",,-34.599515,-58.39443,,,,,America/Argentina/Buenos_Aires,
6861107518,,"GENERAL ROCA 3263",,-34.536959,-58.503382,,,,,America/Argentina/Buenos_Aires,
6490110031,,"MATHEU 251-299",,-34.755664,-58.392897,,,,,America/Argentina/Buenos_Aires,
204154,,"10740 PAZ GRAL. AV.",,-34.640991,-58.529024,,,,,America/Argentina/Buenos_Aires,
6861120964,,"GUIDO Y SPANO 5602-5700",,-34.528927,-58.535145,,,,,America/Argentina/Buenos_Aires,
2031124,,"3399 PAZ GRAL. AV.",,-34.549482,-58.499227,,,,,America/Argentina/Buenos_Aires,
6658123438,,"DOCTOR A. CAVIGLIA 600-698",,-34.695296,-58.298929,,,,,America/Argentina/Buenos_Aires,
628112309,,"AVENIDA TOMÁS ESPORA 213-295",,-34.790792,-58.388889,,,,,America/Argentina/Buenos_Aires,
6371104646,,"ARENALES 3601-3699",,-34.562949,-58.551734,,,,,America/Argentina/Buenos_Aires,
206970,,"4562 CORRIENTES AV.",,-34.602314,-58.429513,,,,,America/Argentina/Buenos_Aires,
6568122814,,"PRESIDENTE DERQUI 2112-2390",,-34.623609,-58.603841,,,,,America/Argentina/Buenos_Aires,
628106236,,"CARLOS PELLEGRINI 1049-1099",,-34.824223,-58.390563,,,,,America/Argentina/Buenos_Aires,
6441127689,,"AVENIDA 120_CALLE 528",,-34.885863,-57.961311,,,,,America/Argentina/Buenos_Aires,
6427131422,,"LEÓNARDO DA VINCI 4300-4398",,-34.745867,-58.615746,,,,,America/Argentina/Buenos_Aires,
6371117327,,"J. M. CAMPOS 685",,-34.546293,-58.527386,,,,,America/Argentina/Buenos_Aires,
6371109326,,"ALVEAR 4579",,-34.565694,-58.569208,,,,,America/Argentina/Buenos_Aires,
6840133674,,"JUSTO JOSÉ DE URQUIZA 4595",,-34.605981,-58.560153,,,,,America/Argentina/Buenos_Aires,
6274117751,,"ROTONDA GUTIÉRREZ",,-34.841216,-58.189805,,,,,America/Argentina/Buenos_Aires,
635128367,,"ENTRE RÍOS 1396",,-34.667589,-58.397436,,,,,America/Argentina/Buenos_Aires,
628135092,,"SANTA ANA 997",,-34.763297,-58.343606,,,,,America/Argentina/Buenos_Aires,
6371122723,,"RODRÍGUEZ PEÑA 3049",,-34.583088,-58.518975,,,,,America/Argentina/Buenos_Aires,
6427101845,,"MONTAÑESES 4935",,-34.702923,-58.571533,,,,,America/Argentina/Buenos_Aires,
6658112751,,"AVENIDA GOBERNADOR MONTEVERDE 1843",,-34.782523,-58.296781,,,,,America/Argentina/Buenos_Aires,
6371122293,,"CALLE 63 5999-6099",,-34.540542,-58.565327,,,,,America/Argentina/Buenos_Aires,
6658113972,,"CAMINO GENERAL BELGRANO 1343-1399",,-34.742323,-58.315752,,,,,America/Argentina/Buenos_Aires,
6371134489,,"PRESIDENTE MONT 2901-2999",,-34.585978,-58.566345,,,,,America/Argentina/Buenos_Aires,
6568128345,,"AVENIDA CALLAO 2220-2272",,-34.696624,-58.646832,,,,,America/Argentina/Buenos_Aires,
6658102069,,"AVENIDA LA PLATA 2699-2779",,-34.745991,-58.271182,,,,,America/Argentina/Buenos_Aires,
628101648,,"2 DE ABRIL 1150",,-34.831038,-58.384344,,,,,America/Argentina/Buenos_Aires,
6638116852,,"AVENIDA JOSÉ E. URIBURU Y LAS ROSAS.",,-34.453653,-58.888688,,,,,America/Argentina/Buenos_Aires,
6568125580,,"AVENIDA DON BOSCO 91",,-34.651255,-58.58388,,,,,America/Argentina/Buenos_Aires,
6412117147,,"MANUEL DE PINAZO Y ALBERT EINSTEIN",,-34.510749,-58.752718,,,,,America/Argentina/Buenos_Aires,
201190,,"791 DE LA TORRE LISANDRO",,-34.64755,-58.519846,,,,,America/Argentina/Buenos_Aires,
