stop_id,stop_name,stop_lat,stop_lon
154,González Catán,-34.7714637,-58.6465457
178,Independencia,-34.7607983,-58.6173412
180,Ing. Budge,-34.7186633,-58.4621518
184,Isidro Casanova,-34.7044639,-58.5879899
203,Justo Villegas,-34.7089650,-58.5519393
209,Laferrere,-34.7506533,-58.5842500
220,La Salada,-34.7188075,-58.4727139
232,Libertad,-34.6921774,-58.6861877
256,María Eva Duarte,-34.7564804,-58.6020446
260,Marinos del Fournier,-34.6901777,-58.5076299
313,Presidente Illia,-34.6661376,-58.4502223
315,Puente Alsina,-34.6614611,-58.4145870
321,Querandí,-34.7223687,-58.5307279
325,Rafael Castillo,-34.6996965,-58.6261936
150,General Urquiza,-34.5747120,-58.4878391
181,Ingeniero Castello,-34.7105416,-58.5063521
354,Sánchez de Mendeville,-34.7124465,-58.5238732
270,Merlo Gómez,-34.6971714,-58.6462658
146,Gándara,-35.4497875,-58.0937313
464,"Km. 34,5",-34.6801742,-58.7602409
195,José Ingenieros,-34.7107620,-58.5372560
525,Dr. Sáenz nueva,-34.6490835,-58.4158387
526,20 de Junio,-34.7802549,-58.7378366
1,3 de Febrero,-34.5717485,-58.4249824
139,Flores,-34.6278504,-58.4661766
22,Apeadero Km. 12,-34.7100582,-58.5059269
37,Benavídez,-34.4091705,-58.6847612
21,Apeadero Kloosterman,-34.9863555,-58.6895825
25,Arquitectura,-34.9049408,-57.9431423
29,Bancalari,-34.4796651,-58.6029298
30,Banfield,-34.7436106,-58.3954246
32,Béccar,-34.4608043,-58.5265437
34,Belgrano C,-34.5588016,-58.4489445
35,Belgrano R,-34.5680506,-58.4618081
36,Bella Vista,-34.5638352,-58.6845919
38,Berazategui,-34.7640977,-58.2084433
39,Bernal,-34.7092611,-58.2805690
42,Borges,-34.5081513,-58.4845536
43,Bosques,-34.8195986,-58.2300795
49,Burzaco,-34.8251482,-58.3913722
50,Caballito,-34.6192442,-58.4436522
51,Cabred,-34.4878244,-59.0756580
55,Campana,-34.1565823,-58.9610031
58,Canal San Fernando,-34.4299116,-58.5629211
60,Cañuelas,-35.0592254,-58.7541775
61,Capilla del Señor,-34.2866198,-59.1021904
64,Carlos Spegazzini,-34.9099069,-58.5942645
65,Carupá,-34.4375361,-58.5674401
67,Caseros,-34.6045861,-58.5644918
70,Castelar,-34.6521562,-58.6425261
79,Chilavert,-34.5422320,-58.5669170
83,City Bell,-34.8657239,-58.0420495
84,Ciudadela,-34.6399227,-58.5411225
85,Claypole,-34.8011800,-58.3382367
90,Coghlan,-34.5652607,-58.4753485
91,Colegiales,-34.5729746,-58.4482530
102,Dante Ardigó,-34.8083880,-58.3048296
104,Delta,-34.4190030,-58.5761953
106,Derqui,-34.4909537,-58.8384456
112,Devoto,-34.6026515,-58.5124313
113,Diagonal 73,-34.9203270,-57.9190436
115,Don Bosco,-34.7033242,-58.2961718
118,Dr. A. Schweitzer,-34.4720989,-58.5744514
119,Dr. Cetrángolo,-34.5230887,-58.4941300
125,El Jagüel,-34.8332274,-58.4961652
128,El Talar,-34.4627922,-58.6460044
129,Empalme Lobos,-35.1514876,-59.0907406
130,Escobar,-34.3494239,-58.7953571
132,Ezeiza,-34.8540842,-58.5228154
133,Ezpeleta,-34.7518509,-58.2341863
137,Ferrari,-34.7060780,-58.7794327
138,Florencio Varela,-34.8111227,-58.2742679
140,Floresta,-34.6323755,-58.4808913
141,Florida,-34.5304745,-58.4944563
93,Constitución,-34.6301709,-58.3805834
463,Retiro LSM,-34.5881302,-58.3756885
151,Gerli,-34.6857287,-58.3826371
152,Glew,-34.8886501,-58.3837029
153,Gonnet,-34.8798410,-58.0107856
117,Domselaar,-35.0701752,-58.2906247
121,Dr. Sáenz,-34.6481153,-58.4199555
134,F. Álvarez,-34.6322048,-58.8553185
86,Cnel. Brandsen,-35.1677373,-58.2320146
147,Garín,-34.4216230,-58.7365407
78,Chascomús,-35.5790842,-57.9823866
248,Maipú,-34.5130886,-58.4875790
155,Gowland,-34.6478196,-59.3528390
165,Guernica,-34.9179155,-58.3805605
168,Gutiérrez,-34.8332066,-58.1880260
169,Haedo,-34.6445334,-58.5918534
172,Hipólito Yrigoyen,-34.6536422,-58.3788878
173,Hornos,-34.8923029,-58.9178610
174,Hospital Español,-34.7862792,-58.4072878
176,Hudson,-34.7911192,-58.1552692
177,Hurlingham,-34.5911517,-58.6322349
236,L. M. Drago,-34.5684173,-58.4789912
179,Informática,-34.9033642,-57.9357323
205,Km. 34,-34.7434594,-58.4650160
190,J. L. Suárez,-34.5347067,-58.5759809
182,Ingeniero S. Brian,-34.6580457,-58.5730377
194,José C. Paz,-34.5193436,-58.7494301
186,Ituzaingó,-34.6596506,-58.6663871
188,Jáuregui,-34.6006273,-59.1734876
189,Jeppener,-35.2776676,-58.1982603
163,Gral. Rodríguez,-34.6088711,-58.9529250
197,José Mármol,-34.7919580,-58.3809410
198,Juan Anchorena,-34.4891115,-58.4812172
200,Juan B. Justo,-34.5425501,-58.4946570
201,Juan XXIII,-34.7713636,-58.4441098
247,Luján,-34.5776869,-59.1050924
204,Kilometro 83,-34.1602209,-58.9771690
240,López Camelo,-34.4468958,-58.6773897
210,La Fraternidad,-34.5984003,-58.9978440
212,La Lucila,-34.4975978,-58.4884466
214,La Noria,-35.1651382,-58.7881853
215,Lanús,-34.7074543,-58.3906370
216,La Paternal,-34.5969831,-58.4671180
217,La Plata,-34.9038945,-57.9501740
218,La Reja,-34.6397171,-58.8284581
222,Las Barrancas,-34.4722137,-58.4934212
225,Las Heras,-34.9279395,-58.9444298
226,Las Malvinas,-34.6160720,-58.9220842
229,L. de la Torre,-34.5625299,-58.4367116
230,Lezama,-35.8738929,-57.8954007
231,Lezica y Torrezuri,-34.5846051,-59.0567847
233,Libertador,-34.5027276,-58.4821262
234,Liniers,-34.6388728,-58.5263409
235,Llavallol,-34.7970708,-58.4291553
237,Lobos,-35.1853363,-59.0927924
238,Lomas de Zamora,-34.7610318,-58.3973127
239,Longchamps,-34.8595879,-58.3871987
243,Los Cardales,-34.3309770,-58.9872035
249,Malaver,-34.5573725,-58.5479328
252,Manzanares,-34.4522459,-59.0067549
253,Maq. Savio,-34.4067502,-58.7723202
254,Marcos Paz,-34.7830555,-58.8365450
257,Mariano Acosta,-34.7243253,-58.7929542
258,Marina Nueva,-34.4445522,-58.5390515
262,Martínez,-34.4885346,-58.4965804
263,Maschwitz,-34.3830219,-58.7362697
264,Matheu,-34.3828607,-58.8296505
265,Máximo Paz,-34.9362878,-58.6205451
267,Medicina,-34.9090514,-57.9278447
268,Mercedes,-34.6574937,-59.4336661
269,Merlo,-34.6644693,-58.7276850
287,Núñez,-34.5482911,-58.4628516
271,Miguelete,-34.5810718,-58.5170793
272,Ministro Carranza,-34.5757050,-58.4354040
273,Mitre,-34.5154718,-58.4896092
275,Monasterio,-35.7637431,-57.9250604
276,Monte,-35.4366533,-58.8176656
277,Monte Grande,-34.8144339,-58.4696989
278,Moreno,-34.6504439,-58.7895979
279,Morón,-34.6482227,-58.6198135
283,Muñiz,-34.5513662,-58.7033147
290,Olivera,-34.6279272,-59.2553985
291,Olivos,-34.5077139,-58.4806636
293,Once,-34.6086496,-58.4088675
294,Otamendi,-34.2222066,-58.8965515
296,Pacheco,-34.4558335,-58.6201168
297,Palermo,-34.5796614,-58.4274154
300,Paso del Rey,-34.6582665,-58.7619414
303,Pereyra,-34.8366304,-58.0945403
304,Periodismo,-34.9122051,-57.9242646
306,Pilar,-34.4687433,-58.9079062
309,Plátanos,-34.7823359,-58.1707596
311,Policlínico,-34.9253053,-57.9213044
332,Retiro LM,-34.5899757,-58.3761290
314,P. Turner,-34.7332318,-58.4748755
347,S. A. de Padua,-34.6654259,-58.6979972
318,Pueyrredón,-34.5804962,-58.5018980
319,Punta Chica,-34.4506585,-58.5236988
348,Sáenz Peña,-34.6031533,-58.5274629
322,Quilmes,-34.7246461,-58.2606591
324,Rafael Calzada,-34.7966735,-58.3591724
310,P. Marín,-34.6227343,-58.8935420
327,Ramos Mejía,-34.6404544,-58.5643758
328,Ranelagh,-34.7893721,-58.2031929
329,Remedios de Escalada,-34.7270922,-58.3936610
333,Ricardo Levene,-35.0216179,-58.7237738
334,Ringuelet,-34.8813876,-57.9960622
335,Rio Lujan,-34.2778567,-58.8903315
337,Rivadavia,-34.5365204,-58.4680326
346,Saavedra,-34.5540735,-58.4870632
353,San Andrés,-34.5635642,-58.5406609
355,San Fernando C,-34.4443381,-58.5587407
356,San Fernando R,-34.4375367,-58.5539910
357,San Isidro C,-34.4722074,-58.5133831
358,San Isidro R,-34.4654466,-58.5081309
359,San Justo,-34.6741934,-58.5553560
360,San Martín,-34.5734195,-58.5319579
3,Abbot,-35.2814201,-58.8029392
5,Acassuso,-34.4800686,-58.5038385
6,Adela,-35.6839055,-57.9539789
8,Adrogué,-34.7978483,-58.3942737
9,Agustín de Elía,-34.7099772,-58.5059186
13,Alejandro Korn,-34.9804097,-58.3738144
14,Alejandro Petión,-34.9775385,-58.6743571
17,Altamirano,-35.3611696,-58.1512081
361,San Miguel,-34.5431069,-58.7150571
12,Aldo Bonzi,-34.7106549,-58.5141386
378,Sol y Verde,-34.5039897,-58.7976033
380,Sourigues,-34.8065811,-58.2127388
383,Tablada,-34.6930707,-58.5280209
386,Temperley,-34.7759243,-58.3963571
389,Tigre,-34.4235670,-58.5817289
392,Tolosa,-34.8909547,-57.9680983
396,Tristán Suárez,-34.8892028,-58.5677383
399,Turdera,-34.7950533,-58.4078781
400,Unión Ferroviaria,-34.8701194,-58.5432637
402,Uribelarrea,-35.1154841,-58.8984676
407,Vicente Casares,-34.9621814,-58.6478470
408,Vicente López,-34.5247233,-58.4728065
409,Victoria,-34.4561533,-58.5411284
411,Villa Astolfi,-34.4786824,-58.8768343
412,Villa Ballester,-34.5501584,-58.5570784
414,Villa Crespo,-34.5933908,-58.4483617
419,Villa Elisa,-34.8495861,-58.0751851
420,Villa España,-34.7744501,-58.1949303
423,Villa Luro,-34.6362494,-58.5021311
428,Virreyes,-34.4506827,-58.5507001
430,Wilde,-34.6975894,-58.3111938
431,William Morris,-34.5784645,-58.6565796
432,Zamudio,-34.8578991,-58.8921946
433,Zapiola,-35.0583029,-59.0418857
435,Zeballos,-34.8106377,-58.2594167
436,Zelaya,-34.3703514,-58.8683114
259,Marinos C. G. Belgrano,-34.7086815,-58.7307061
246,Luis Guillón,-34.8032178,-58.4485504
365,Santa Catalina,-34.7804203,-58.4373374
367,Santa Sofía,-34.8250279,-58.2132652
418,Villa Domínico,-34.6915355,-58.3253499
369,Santos Lugares,-34.6036745,-58.5407521
370,Sarandí,-34.6787475,-58.3449626
381,Speratti,-35.0021051,-58.9998545
385,Tapiales,-34.7025293,-58.5115373
413,Villa Caraza,-34.6980032,-58.4290641
417,Villa Diamante,-34.6817442,-58.4283297
421,Villa Fiorito,-34.7053789,-58.4409217
422,Villa Lugano,-34.6771300,-58.4769699
424,Villa Madero,-34.6840978,-58.4925366
427,Villa Soldati,-34.6622014,-58.4408973
401,Univ. Luján,-34.5774242,-59.0874075
434,Zárate,-34.0979051,-59.0378286
415,Villa del Parque,-34.6013699,-58.4935315
127,El Palomar,-34.6049260,-58.5956555
368,S. y Kosteki,-34.6613896,-58.3768325
48,Buenos Aires,-34.6455629,-58.3939958